Country,City,AccentCity,Region,Population,Latitude,Longitude
cn,shanghai,Shanghai,23,14608512,31.045556,121.399722
br,sao paulo,São Paulo,27,10021437,-23.473293,-46.665803
cd,kinshasa,Kinshasa,6,7787832,-4.3,15.3
eg,cairo,Cairo,11,7734602,30.05,31.25
cn,peking,Peking,22,7480601,39.928889,116.388333
gb,london,London,H9,7421228,51.514125,-0.093689
co,bogota,Bogotá,34,7102602,4.649178,-74.062827
bd,dhaka,Dhaka,81,6493177,23.7230556,90.4086111
br,rio de janeiro,Rio de Janeiro,21,6023742,-22.9,-43.233333
cl,santiago,Santiago,12,4837248,-33.45,-70.666667
ca,toronto,Toronto,8,4612187,43.666667,-79.416667
au,sydney,Sydney,2,4394585,-33.861481,151.205475
cn,wuhan,Wuhan,12,4184206,30.580125,114.273405
cn,chongqing,Chongqing,33,3967028,29.562778,106.552778
cn,xian,Xian,26,3953191,34.258333,108.928611
cn,chengdu,Chengdu,32,3950437,30.666667,104.066667
eg,alexandria,Alexandria,6,3811512,31.1980556,29.9191667
cn,tianjin,Tianjin,28,3766207,39.142222,117.176667
au,melbourne,Melbourne,7,3730212,-37.813938,144.963425
ci,abidjan,Abidjan,82,3692570,5.309657,-4.012656
cn,shenyang,Shenyang,19,3512192,41.792222,123.432778
de,berlin,Berlin,16,3398362,52.516667,13.4
ca,montreal,Montreal,10,3268513,45.5,-73.583333
cn,harbin,Harbin,8,3229883,45.75,126.65
cn,guangzhou,Guangzhou,30,3152825,23.116667,113.25
es,madrid,Madrid,29,3102644,40.408566,-3.69222
cn,nanjing,Nanjing,4,3087010,32.061667,118.777778
af,kabul,Kabul,13,3043589,34.516667,69.183333
ao,luanda,Luanda,20,2776125,-8.836804,13.233174
et,addis abeba,Addis Abeba,44,2757807,9.024325,38.749226
cn,taiyuan,Taiyuan,24,2722475,37.726944,112.470833
br,salvador,Salvador,5,2711903,-12.983333,-38.516667
cn,changchun,Changchun,5,2537421,43.88,125.322778
eg,gizeh,Gizeh,8,2443490,30.0086111,31.2122222
br,fortaleza,Fortaleza,6,2416920,-3.316667,-41.416667
co,cali,Cali,29,2392897,3.437222,-76.5225
br,belo horizonte,Belo Horizonte,15,2373255,-19.916667,-43.933333
br,brasilia,Brasília,7,2207812,-15.783333,-47.916667
do,santo domingo,Santo Domingo,5,2202016,18.4666667,-69.9
fr,paris,Paris,A8,2110694,48.866667,2.333333
cn,jinan,Jinan,25,2069266,36.668333,116.997222
cn,tangshan,Tangshan,10,2054526,37.3325,114.701389
cn,dalian,Dalian,19,2035307,38.912222,121.602222
co,medellin,Medellín,2,2000001,6.25184,-75.563591
dz,algiers,Algiers,1,1980242,36.7630556,3.0505556
gh,accra,Accra,1,1963460,5.55,-0.2166667
ec,guayaquil,Guayaquil,10,1952029,-2.1666667,-79.9
cn,jilin,Jilin,5,1881977,43.850833,126.560278
cn,hangzhou,Hangzhou,2,1878129,30.29365,120.161419
cn,nanchang,Nanchang,3,1871351,28.55,115.933333
gn,conakry,Conakry,4,1871185,9.5091667,-13.7122222
au,brisbane,Brisbane,4,1843459,-27.47101,153.024292
ca,vancouver,Vancouver,2,1837970,49.25,-123.133333
by,minsk,Minsk,4,1742123,53.9,27.5666667
de,hamburg,Hamburg,4,1733846,53.55,10
br,curitiba,Curitiba,18,1718433,-25.416667,-49.25
cn,qingdao,Qingdao,25,1642245,36.098611,120.371944
br,manaus,Manaus,4,1598227,-3.113333,-60.025278
cn,xinyang,Xinyang,9,1590668,32.095833,114.120278
es,barcelona,Barcelona,56,1570378,41.398371,2.1741
at,vienna,Vienna,9,1569315,48.2,16.366667
cn,urumqi,Ürümqi,13,1508225,43.800965,87.600459
br,recife,Recife,30,1478118,-8.05,-34.9
gh,kumasi,Kumasi,2,1468797,6.6833333,-1.6166667
au,perth,Perth,8,1446715,-31.95224,115.861397
ar,cordoba,Cordoba,5,1441007,-31.413496,-64.181052
cn,lanzhou,Lanzhou,15,1417742,36.056389,103.792222
br,belem,Belém,16,1407737,-1.45,-48.483333
cn,fushun,Fushun,19,1400646,41.7,123.883333
ec,quito,Quito,18,1399814,-0.2166667,-78.5
cn,luoyang,Luoyang,9,1390581,34.683611,112.453611
cn,hefei,Hefei,1,1388904,31.863889,117.280833
co,barranquilla,Barranquilla,4,1380437,10.963889,-74.796389
cd,lubumbashi,Lubumbashi,5,1374808,-11.666667,27.466667
br,porto alegre,Porto Alegre,23,1372763,-30.033333,-51.2
cn,handan,Handan,10,1358318,36.566667,114.533333
cn,suzhou,Suzhou,4,1343091,31.311389,120.618056
bd,khulna,Khulna,82,1342429,22.8,89.55
cm,douala,Douala,5,1338144,4.0502778,9.7
cm,yaounde,Yaoundé,11,1299446,3.8666667,11.5166667
de,munich,Munich,2,1246133,48.15,11.5833
ar,rosario,Rosario,21,1218497,-32.946818,-60.639317
cn,anshan,Anshan,19,1199275,41.123611,122.99
cn,xuzhou,Xuzhou,4,1199193,34.180454,117.15707
cn,fuzhou,Fuzhou,7,1179720,26.061389,119.306111
cn,guiyang,Guiyang,18,1171633,26.583333,106.716667
br,goiania,Goiânia,29,1171209,-16.666667,-49.266667
br,guarulhos,Guarulhos,27,1169601,-23.45068,-46.526175
cz,prague,Prague,52,1154508,50.083333,14.466667
ae,dubai,Dubai,3,1137376,25.258172,55.304717
az,baku,Baku,9,1116513,40.395278,49.882222
cg,brazzaville,Brazzaville,12,1115773,-4.2591667,15.2847222
cn,wuxi,Wuxi,4,1108647,31.568873,120.288573
am,yerevan,Yerevan,11,1093499,40.1811111,44.5136111
dk,copenhagen,Copenhagen,17,1089958,55.666667,12.583333
au,adelaide,Adelaide,5,1074168,-34.928661,138.598633
bg,sofia,Sofia,42,1062065,42.6833333,23.3166667
cn,datong,Datong,24,1052678,40.093611,113.291389
ge,tbilisi,Tbilisi,19,1049516,41.725,44.7908333
cn,xianyang,Xianyang,26,1034081,34.33778,108.70261
br,campinas,Campinas,27,1031573,-22.9,-47.083333
bf,ouagadougou,Ouagadougou,53,1031330,12.3702778,-1.5247222
cn,huainan,Huainan,1,1027655,32.626389,116.996944
cn,kunming,Kunming,29,1023674,25.038889,102.718333
be,brussels,Brussels,11,1019022,50.833333,4.333333
cn,shenzhen,Shenzhen,30,1002592,22.533333,114.133333
br,nova iguacu,Nova Iguaçu,21,1002129,-22.759188,-43.431887
cn,rongcheng,Rongcheng,30,1001985,23.528858,116.364159
cn,baoding,Baoding,10,995652,38.851111,115.490278
cn,benxi,Benxi,19,987717,41.288611,123.765
gb,birmingham,Birmingham,A7,984336,52.466667,-1.916667
ar,mendoza,Mendoza,13,973047,-32.890845,-68.827171
de,cologne,Cologne,7,968823,50.933333,6.95
ca,calgary,Calgary,1,968475,51.083333,-114.083333
br,maceio,Maceió,2,955010,-9.666667,-35.716667
co,cartagena,Cartagena,35,952036,10.399722,-75.514444
cn,changzhou,Changzhou,4,949018,31.783333,119.966667
br,sao goncalo,São Gonçalo,21,939101,-22.800278,-43.025556
br,sao luis,São Luís,13,917252,-2.516667,-44.266667
cn,huaibei,Huaibei,1,903039,33.974444,116.791667
bo,cochabamba,Cochabamba,2,900440,-17.3833333,-66.15
cn,pingdingshan,Pingdingshan,9,889675,33.738472,113.301194
cn,qiqihar,Qiqihar,8,882364,47.340833,123.967222
cd,mbuji-mayi,Mbuji-Mayi,4,874974,-6.15,23.6
ca,ottawa,Ottawa,8,874433,45.416667,-75.7
cn,wenzhou,Wenzhou,2,865672,27.999416,120.66682
ar,tucuman,Tucuman,24,828402,-26.824144,-65.2226
ca,edmonton,Edmonton,1,822319,53.55,-113.5
br,duque de caxias,Duque de Caxias,21,818339,-22.790321,-43.325009
bo,la paz,La Paz,4,812819,-16.5,-68.15
cn,nanning,Nanning,16,803788,22.816667,108.316667
fr,marseille,Marseille,B8,792823,43.285413,5.37606
cn,anyang,Anyang,9,781129,36.099444,114.328889
cn,hohhot,Hohhot,20,774477,40.810556,111.652222
es,valencia,Valencia,60,769897,39.466667,-0.366667
cn,xining,Xining,6,767531,36.616667,101.766667
cn,liuzhou,Liuzhou,16,763168,24.312582,109.389157
br,natal,Natal,22,763057,-5.783333,-35.216667
cn,qinhuangdao,Qinhuangdao,10,759718,39.931667,119.588333
cn,hengyang,Hengyang,11,759602,26.888056,112.615
cn,taian,Taian,25,750340,36.185278,117.12
br,teresina,Teresina,20,744526,-5.083333,-42.816667
cn,xinxiang,Xinxiang,9,743601,35.308889,113.867222
br,sao bernardo do campo,São Bernardo do Campo,27,743386,-23.7,-46.55
cn,hegang,Hegang,8,743307,47.4,130.366667
br,campo grande,Campo Grande,11,729164,-20.45,-54.616667
gr,athens,Athens,35,729139,37.9833333,23.7333333
co,cucuta,Cúcuta,21,721406,7.893907,-72.507821
cn,langfang,Langfang,10,720119,39.509722,116.694722
cn,ningbo,Ningbo,2,719867,29.878186,121.549453
cn,yantai,Yantai,25,719332,37.533333,121.4
cn,zhuzhou,Zhuzhou,11,709358,27.691868,113.152137
br,jaboatao,Jaboatão,30,702632,-8.116667,-35.016667
bd,rajshahi,Rajshahi,81,700206,24.3666667,88.6
ba,sarajevo,Sarajevo,1,696726,43.85,18.3833333
cn,zhangjiakou,Zhangjiakou,10,692602,40.81,114.879444
bj,cotonou,Cotonou,14,690584,6.35,2.4333333
cn,zigong,Zigong,32,689961,29.341622,104.776887
cn,fuxin,Fuxin,19,689050,42.015556,121.658889
cn,liaoyang,Liaoyang,19,687890,41.226111,123.056111
es,sevilla,Sevilla,51,686647,37.382408,-5.976133
ar,la plata,La Plata,1,684318,-34.921454,-57.954533
cf,bangui,Bangui,18,684190,4.3666667,18.5833333
br,osasco,Osasco,27,677869,-23.566667,-46.783333
cn,zhangdian,Zhangdian,25,669770,36.790556,118.063333
cn,puyang,Puyang,9,666322,35.702778,115.005278
cn,nantong,Nantong,4,666251,32.030278,120.874722
cn,mudanjiang,Mudanjiang,8,665915,44.583333,129.6
br,santo andre,Santo André,27,662387,-23.666667,-46.516667
ca,hamilton,Hamilton,8,653637,43.25,-79.833333
br,joao pessoa,João Pessoa,17,650896,-7.116667,-34.866667
cn,shaoyang,Shaoyang,11,649452,26.965893,111.241376
cn,guilin,Guilin,16,649352,25.281944,110.286389
de,frankfurt,Frankfurt,5,648034,50.116667,8.683333
dz,wahran,Wahran,9,646025,35.6911111,-0.6416667
ar,mar del plata,Mar del Plata,1,645771,-38.002278,-57.557539
ca,quebec,Quebec,10,645623,46.8,-71.25
cn,zhanjiang,Zhanjiang,30,637790,21.281452,110.342713
es,zaragoza,Zaragoza,52,635509,41.64531,-0.884861
cn,zhenjiang,Zhenjiang,4,632552,32.209167,119.434167
ca,winnipeg,Winnipeg,3,632069,49.883333,-97.166667
cn,dandong,Dandong,19,631973,40.129167,124.394722
cn,shaoguan,Shaoguan,30,628749,24.8,113.583333
cn,yancheng,Yancheng,4,628441,33.385556,120.125278
cn,foshan,Foshan,30,627348,23.026771,113.131483
br,contagem,Contagem,15,627132,-19.916667,-44.1
dj,jibuti,Jibuti,3,623891,11.595,43.1480556
cn,haikou,Haikou,31,615835,20.045833,110.341667
br,sao jose dos campos,São José dos Campos,27,613776,-23.183333,-45.883333
cn,taizhou,Taizhou,4,612356,32.493333,119.910627
cn,xingtai,Xingtai,10,611739,37.063056,114.494167
gb,glasgow,Glasgow,V2,610271,55.833333,-4.25
cn,jinzhou,Jinzhou,19,604269,41.107778,121.141667
ae,abu dhabi,Abu Dhabi,1,603687,24.466667,54.366667
cn,luancheng,Luancheng,10,597130,37.879167,114.651667
de,dortmund,Dortmund,7,594255,51.516667,7.45
de,stuttgart,Stuttgart,1,591688,48.766667,9.183333
cn,yingkou,Yingkou,19,591159,40.637318,122.502508
cn,zhangzhou,Zhangzhou,7,589831,24.513333,117.655556
gb,belfast,Belfast,R3,585994,54.583333,-5.933333
cn,xiamen,Xiamen,7,578337,24.479794,118.081869
ga,libreville,Libreville,1,578156,0.3833333,9.45
de,dusseldorf,Düsseldorf,7,577139,51.216667,6.766667
cn,kaifeng,Kaifeng,9,576915,34.744167,114.418611
de,essen,Essen,7,576914,51.45,7.016667
cn,bengbu,Bengbu,1,576648,32.940833,117.360833
cn,shihezi,Shihezi,13,572772,44.3,86.033333
ci,bouake,Bouaké,90,572149,7.693846,-5.030307
co,bucaramanga,Bucaramanga,26,571827,7.125393,-73.119804
er,asmara,Asmara,0,563948,15.3333333,38.9333333
br,uberlandia,Uberlândia,15,563545,-18.916667,-48.3
br,sorocaba,Sorocaba,27,558874,-23.483333,-47.45
fi,helsinki,Helsinki,13,558457,60.175556,24.934167
es,malaga,Málaga,51,557875,36.726666,-4.434802
do,santiago,Santiago,25,555911,19.45,-70.7
cu,santiago de cuba,Santiago de Cuba,15,555878,20.0247222,-75.8219444
cn,huaiyin,Huaiyin,4,555230,33.588611,119.019167
br,ribeirao preto,Ribeirão Prêto,27,551278,-21.166667,-47.8
cn,jiamusi,Jiamusi,8,549549,46.833333,130.35
ar,salta,Salta,17,548288,-24.785896,-65.411664
cn,neijiang,Neijiang,32,546854,29.583536,105.06216
de,bremen,Bremen,3,546429,53.083333,8.8
ae,sharjah,Sharjah,6,543942,25.35731,55.403304
cn,maanshan,Maanshan,1,540198,31.695678,118.498248
cn,yangzhou,Yangzhou,4,539715,32.397222,119.435833
cd,kisangani,Kisangani,9,539164,0.516667,25.2
eg,port said,Port Said,19,538377,31.2666667,32.3
cn,tanggu,Tanggu,28,535298,39.021111,117.646944
cn,jiangmen,Jiangmen,30,532419,22.583333,113.083333
cn,yueyang,Yueyang,11,528140,29.140833,113.111111
cn,cangzhou,Cangzhou,10,527681,38.316667,116.866667
br,cuiaba,Cuiabá,14,521961,-15.583333,-56.083333
de,hanover,Hanover,6,519144,52.366667,9.716667
cn,changde,Changde,11,517780,29.046378,111.678304
cn,jiaozuo,Jiaozuo,9,517540,35.239722,113.233056
cn,wuhu,Wuhu,1,507524,31.14607,118.57069
de,duisburg,Duisburg,7,505271,51.433333,6.75
cn,zhuhai,Zhuhai,30,501199,22.276944,113.567778
au,gold coast,Gold Coast,4,501175,-28.00029,153.430878
cn,shashi,Shashi,12,498780,30.307222,112.244722
au,newcastle,Newcastle,2,497961,-32.927792,151.784485
de,nuremberg,Nuremberg,2,497593,49.447778,11.068333
de,leipzig,Leipzig,13,492637,51.3,12.333333
br,aracaju,Aracaju,28,490184,-10.916667,-37.066667
eg,suez,Suez,15,488124,29.9666667,32.55
br,feira de santana,Feira de Santana,5,481926,-12.25,-38.95
by,gomel,Gomel,2,481000,52.4416667,30.9833333
de,dresden,Dresden,13,480801,51.05,13.75
cn,yichang,Yichang,12,476725,30.77135,111.321458
cn,yinchuan,Yinchuan,21,475101,38.468056,106.273056
cn,maoming,Maoming,30,473251,21.65,110.9
br,londrina,Londrina,18,471836,-23.3,-51.15
cn,jiaojiang,Jiaojiang,2,470804,28.680278,121.442778
br,juiz de fora,Juiz de Fora,15,470201,-21.751667,-43.352778
ar,san juan,San Juan,18,469958,-31.5375,-68.536389
gb,liverpool,Liverpool,H8,468946,53.416667,-3
cn,zunyi,Zunyi,18,466292,27.543056,106.823056
br,belford roxo,Belford Roxo,21,466101,-22.761995,-43.404654
cn,jiaxing,Jiaxing,2,466101,30.752198,120.749997
fr,lyon,Lyon,B9,463700,45.748457,4.846711
cd,kananga,Kananga,3,463556,-5.895833,22.417778
cn,xiangfan,Xiangfan,12,462956,32.042203,112.144794
cn,panzhihua,Panzhihua,32,461513,26.547902,101.705386
br,joinville,Joinville,26,461312,-26.3,-48.833333
be,antwerp,Antwerp,1,459805,51.216667,4.416667
br,niteroi,Niterói,21,456461,-22.90214,-43.130301
cn,hengshui,Hengshui,10,456356,37.732222,115.701111
ar,santa fe,Santa Fe,21,456044,-31.629484,-60.701036
gb,leeds,Leeds,H3,455124,53.8,-1.583333
br,sao joao de meriti,São João de Meriti,21,454855,-22.798614,-43.360894
cn,jining,Jining,25,450327,35.405,116.581389
dz,constantine,Constantine,4,450126,36.365,6.6147222
cn,chengde,Chengde,10,449325,40.770278,118.169722
cn,xuchang,Xuchang,9,449258,34.016667,113.816667
gb,sheffield,Sheffield,L9,447048,53.366667,-1.5
co,pereira,Pereira,24,440123,4.813333,-75.696111
cn,baoji,Baoji,26,438295,34.365907,107.359045
cm,garoua,Garoua,13,436932,9.3,13.4
cm,kousseri,Kousséri,12,435986,12.0783333,15.0308333
gb,edinburgh,Edinburgh,U8,435794,55.95,-3.2
br,ananindeua,Ananindeua,16,433956,-1.366667,-48.383333
co,santa marta,Santa Marta,38,431788,11.240791,-74.19904
eg,el mahalla el kubra,El Mahalla el Kubra,5,431088,30.9761111,31.1669444
gb,bristol,Bristol,B7,430714,51.45,-2.583333
cn,luqiao,Luqiao,2,427890,28.580835,121.377148
cn,chaozhou,Chaozhou,30,424787,23.665129,116.637864
cd,likasi,Likasi,5,422726,-10.981389,26.733333
eg,luxor,Luxor,23,422408,25.6833333,32.65
co,ibague,Ibagué,28,421689,4.438889,-75.232222
cn,shaoxing,Shaoxing,2,421283,30.011019,120.571528
eg,asyut,Asyut,17,420614,27.1827778,31.1827778
cn,luohe,Luohe,9,417356,33.571667,114.035278
br,florianopolis,Florianópolis,26,412731,-27.583333,-48.566667
br,santos,Santos,27,411411,-23.95,-46.333333
fr,toulouse,Toulouse,B3,411145,43.599516,1.433188
es,murcia,Murcia,31,410364,37.987041,-1.130042
cn,chaoyang,Chaoyang,19,410005,41.570278,120.458611
ca,kitchener,Kitchener,8,409111,43.45,-80.5
cn,shiyan,Shiyan,12,408055,32.6475,110.778056
ar,santiago del estero,Santiago del Estero,22,407636,-27.795112,-64.261489
ar,resistencia,Resistencia,3,406967,-27.46056,-58.983886
br,ribeirao das neves,Ribeirão das Neves,15,406840,-19.783333,-44.1
eg,tanta,Tanta,5,404934,30.7911111,30.9980556
cn,jixi,Jixi,8,403759,45.3,130.966667
cn,yangjiang,Yangjiang,30,399735,21.85,111.966667
gb,manchester,Manchester,I2,395516,53.5,-2.216667
br,vila velha,Vila Velha,8,394937,-20.333333,-40.283333
cn,weifang,Weifang,25,394732,36.71,119.101944
br,serra,Serra,8,394160,-20.116667,-40.3
ee,tallinn,Tallinn,1,394023,59.4338889,24.7280556
cm,bamenda,Bamenda,7,393871,5.9333333,10.1666667
co,bello,Bello,2,392945,6.337315,-75.557951
cn,xinpu,Xinpu,4,392444,34.599722,119.159444
af,qandahar,Qandahar,23,391230,31.613323,65.710126
br,diadema,Diadema,27,390641,-23.7,-46.616667
ar,corrientes,Corrientes,6,390481,-27.480596,-58.834099
br,campos,Campos,21,387422,-21.75,-41.3
de,bochum,Bochum,7,387061,51.483333,7.216667
br,maua,Mauá,27,386077,-23.666667,-46.45
bj,abomey-calavi,Abomey-Calavi,5,385823,6.45,2.35
br,betim,Betim,15,384038,-19.966667,-44.216667
co,pasto,Pasto,20,382242,1.213611,-77.281111
br,caxias do sul,Caxias do Sul,23,381277,-29.1689,-51.1785
cn,dezhou,Dezhou,25,379555,37.448611,116.2925
es,palma,Palma,7,378884,39.574337,2.655222
cz,brno,Brno,78,377407,49.2,16.633333
cn,zhoukou,Zhoukou,9,377061,33.633333,114.633333
al,tirana,Tirana,50,374801,41.3275,19.8188889
br,sao jose do rio preto,São José do Rio Prêto,27,374706,-20.8,-49.383333
cn,xuanhua,Xuanhua,10,373422,40.610278,115.044722
cn,pingxiang,Pingxiang,3,372123,27.616667,113.85
bf,bobo dioulasso,Bobo Dioulasso,51,370809,11.2,-4.3
br,olinda,Olinda,30,366761,-8.016667,-34.85
es,las palmas,Las Palmas,53,365418,28.099727,-15.41343
de,wuppertal,Wuppertal,7,363240,51.266667,7.183333
cn,zhaoqing,Zhaoqing,30,361969,23.051157,112.459722
br,carapicuiba,Carapicuíba,27,361120,-23.516667,-46.833333
gh,tamale,Tamale,6,360644,9.4,-0.8333333
ar,neuquen,Neuquen,15,359037,-38.951606,-68.059102
cn,anqing,Anqing,1,358661,30.509167,117.050556
co,manizales,Manizales,37,357819,5.06889,-75.517383
cn,sanmenxia,Sanmenxia,9,357767,34.774722,111.181389
co,neiva,Neiva,16,352859,2.927299,-75.281885
cn,anshun,Anshun,18,351936,26.25,105.933333
gh,tema,Tema,8,351556,5.6166667,-0.0166667
es,bilbao,Bilbao,59,349270,43.260919,-2.938764
br,campina grande,Campina Grande,17,348943,-7.216667,-35.883333
cu,camaguey,Camagüey,5,347572,21.3808333,-77.9169444
ca,london,London,8,346774,42.983333,-81.25
cn,chifeng,Chifeng,20,346654,42.268333,118.963611
ch,zurich,Zurich,25,346185,47.366667,8.55
cn,qitaihe,Qitaihe,8,345033,45.8,130.85
cd,boma,Boma,8,344522,-5.85,13.05
co,soledad,Soledad,4,342562,10.918433,-74.76459
cn,zhongshan,Zhongshan,1,342306,22.520576,113.382318
br,piracicaba,Piracicaba,27,342216,-22.716667,-47.633333
fr,nice,Nice,B8,341621,43.713644,7.25952
cn,aksu,Aksu,13,340020,41.123056,80.264444
gb,leicester,Leicester,H4,339240,52.633333,-1.133333
gb,leicester,Leicester,H5,339240,52.664913,-1.034894
br,macapa,Macapá,3,338937,0.033333,-51.05
bd,tungi,Tungi,81,337620,23.89,90.4058333
br,itaquaquecetuba,Itaquaquecetuba,27,336686,-23.483333,-46.35
cr,san jose,San José,8,335056,9.933333,-84.083333
br,bauru,Bauru,27,335031,-22.316667,-49.066667
cn,tieling,Tieling,19,333907,42.293056,123.841389
br,montes claros,Montes Claros,15,332384,-16.716667,-43.866667
bg,plovdiv,Plovdiv,51,332088,42.15,24.75
br,cariacica,Cariacica,8,330681,-20.266667,-40.416667
bi,bujumbura,Bujumbura,2,330539,-3.3761111,29.36
br,canoas,Canoas,23,328297,-29.933333,-51.183333
de,bielefeld,Bielefeld,7,327198,52.033333,8.533333
cn,yanji,Yanji,5,326957,42.771389,129.423333
br,moji das cruzes,Moji das Cruzes,27,325753,-23.516667,-46.183333
br,sao vicente,São Vicente,27,324464,-23.966667,-46.383333
au,canberra,Canberra,1,324025,-35.27603,149.13435
co,villavicencio,Villavicencio,19,321721,4.142002,-73.626645
br,jundiai,Jundiaí,27,321595,-23.183333,-46.866667
br,pelotas,Pelotas,23,320680,-31.766667,-52.333333
cm,maroua,Maroua,12,319974,10.5955556,14.3247222
br,anapolis,Anápolis,29,319592,-16.333333,-48.966667
cu,holguin,Holguín,12,319114,20.8872222,-76.2630556
cn,shangrao,Shangrao,3,318769,28.453221,117.968604
by,hrodna,Hrodna,3,317366,53.6813889,23.8147222
cz,ostrava,Ostrava,85,317136,49.811852,18.255282
cn,baicheng,Baicheng,5,316970,45.616667,122.816667
es,valladolid,Valladolid,55,315859,41.655181,-4.72372
co,armenia,Armenia,23,315332,4.533889,-75.681111
de,bonn,Bonn,7,314081,50.733333,7.1
co,soacha,Soacha,33,313950,4.579368,-74.216819
ar,posadas,Posadas,14,313438,-27.367077,-55.896078
cn,jinxi,Jinxi,19,313247,40.764317,120.85327
br,vitoria,Vitória,8,312662,-20.316667,-40.35
cn,tongling,Tongling,1,312588,30.933333,117.816667
br,maringa,Maringá,18,311727,-23.416667,-51.916667
es,cordoba,Córdoba,51,311186,37.89155,-4.772748
cn,jingdezhen,Jingdezhen,3,310565,29.2947,117.207887
br,guaruja,Guarujá,27,310430,-24,-46.266667
cl,antofagasta,Antofagasta,3,309835,-23.65,-70.4
de,mannheim,Mannheim,1,309626,49.488333,8.464722
gb,coventry,Coventry,C7,308314,52.416667,-1.55
co,valledupar,Valledupar,10,308242,10.46314,-73.253224
bg,varna,Varna,61,307952,43.2166667,27.9166667
cn,dongying,Dongying,25,306450,37.456389,118.485556
eg,el faiyum,El Faiyûm,4,306421,29.3077778,30.84
br,porto velho,Pôrto Velho,24,306206,-8.766667,-63.9
br,franca,Franca,27,305047,-20.533333,-47.4
gb,kingston upon hull,Kingston upon Hull,G6,302297,53.716667,-0.333333
gb,cardiff,Cardiff,X5,302142,51.5,-3.2
by,brest,Brest,1,300716,52.1,23.7
gb,bradford,Bradford,B4,299310,53.783333,-1.75
ar,parana,Parana,8,299257,-31.731967,-60.523802
cn,luzhou,Luzhou,32,295056,28.872391,105.44049
cl,vina del mar,Vina del Mar,1,294553,-33.008056,-71.519722
br,blumenau,Blumenau,26,293955,-26.9222,-49.0615
br,foz do iguacu,Foz do Iguaçu,18,293526,-25.55,-54.583333
br,ponta grossa,Ponta Grossa,18,292179,-25.083333,-50.15
cm,bafoussam,Bafoussam,8,290798,5.4666667,10.4166667
br,paulista,Paulista,30,289977,-7.95,-34.883333
br,limeira,Limeira,27,289671,-22.561667,-47.402778
ca,victoria,Victoria,2,289625,48.433333,-123.35
cn,beihai,Beihai,16,289568,21.483333,109.1
cn,huizhou,Huizhou,30,289201,23.083333,114.4
es,vigo,Vigo,58,286585,42.232823,-8.722637
bd,rangpur,Rangpur,83,285586,25.75,89.25
br,viamao,Viamão,23,285274,-30.083333,-51.033333
eg,ismailia,Ismailia,7,284851,30.5833333,32.2666667
de,karlsruhe,Karlsruhe,1,284786,49.004722,8.385833
fr,nantes,Nantes,B5,284677,47.216509,-1.552379
br,suzano,Suzano,27,283319,-23.533333,-46.333333
ar,bahia blanca,Bahia Blanca,1,282950,-38.719595,-62.272432
cl,valparaiso,Valparaiso,1,282450,-33.047778,-71.601111
co,itagui,Itagüí,2,281858,6.171944,-75.611389
bd,narsingdi,Narsingdi,81,281110,23.9208333,90.7180556
cn,chuzhou,Chuzhou,1,280582,32.321944,118.297778
bd,barisal,Barisal,84,280437,22.7,90.3666667
ca,windsor,Windsor,8,278013,42.333333,-83.033333
ar,jujuy,Jujuy,10,277150,-24.194565,-65.297116
ec,cuenca,Cuenca,2,276964,-2.8833333,-78.9833333
cm,mokolo,Mokolo,12,275750,10.7402778,13.8027778
br,caucaia,Caucaia,6,275023,-3.7,-38.65
cn,kashi,Kashi,13,274717,39.454722,75.979722
fr,strasbourg,Strasbourg,C1,273506,48.600381,7.787355
af,herat,Herat,11,272880,34.348167,62.199673
cu,guantanamo,Guantánamo,10,272808,20.1444444,-75.2091667
br,petropolis,Petrópolis,21,272694,-22.510833,-43.184444
de,munster,Münster,7,272452,51.966667,7.633333
co,monteria,Montería,12,272424,8.747984,-75.881428
de,wiesbaden,Wiesbaden,5,272337,50.083333,8.25
de,gelsenkirchen,Gelsenkirchen,7,271647,51.516667,7.05
cd,tshikapa,Tshikapa,3,267508,-6.416667,20.8
ca,halifax,Halifax,7,266012,44.65,-63.6
cn,yingcheng,Yingcheng,12,265886,30.95,113.55
cn,wuzhou,Wuzhou,16,265846,23.483333,111.316667
cn,hulan ergi,Hulan Ergi,8,265344,47.204167,123.633333
de,monchengladbach,Mönchengladbach,7,264969,51.2,6.433333
cn,mianyang,Mianyang,32,264136,31.459339,104.754235
es,gijon,Gijón,34,262573,43.535731,-5.661519
de,augsburg,Augsburg,2,261842,48.366667,10.883333
co,sincelejo,Sincelejo,27,261190,9.304722,-75.397778
cn,tongliao,Tongliao,20,261110,43.6125,122.265278
au,wollongong,Wollongong,2,260918,-34.424,150.893448
br,uberaba,Uberaba,15,260847,-19.75,-47.916667
gb,stoke-on-trent,Stoke-on-Trent,N4,260420,53,-2.183333
cn,jiujiang,Jiujiang,3,258807,29.60794,115.887205
cn,jining,Jining,20,258757,41.0275,113.105833
cn,yining,Yining,13,257671,43.881111,81.245833
br,rio branco,Rio Branco,1,257645,-9.966667,-67.8
br,cascavel,Cascavel,18,257174,-24.95,-53.466667
cn,heze,Heze,25,254602,35.243056,115.441111
br,novo hamburgo,Novo Hamburgo,23,253846,-29.683333,-51.133333
cn,zhumadian,Zhumadian,9,253536,32.979444,114.029444
br,vitoria da conquista,Vitória da Conquista,5,253144,-14.85,-40.85
cn,laohekou,Laohekou,12,253112,32.385833,111.667778
cl,talcahuano,Talcahuano,6,252969,-36.716667,-73.116667
gb,wolverhampton,Wolverhampton,Q3,252792,52.583333,-2.133333
et,dire dawa,Dire Dawa,48,252347,9.593056,41.866111
co,floridablanca,Floridablanca,26,252271,7.062222,-73.08644
cn,suihua,Suihua,8,252245,46.640556,126.996944
br,barueri,Barueri,27,251999,-23.516667,-46.883333
br,taubate,Taubaté,27,251647,-23.033333,-45.55
cn,nanyang,Nanyang,9,251532,32.994722,112.532778
de,aachen,Aachen,7,251104,50.770833,6.105278
br,governador valadares,Governador Valadares,15,250882,-18.85,-41.933333
cu,santa clara,Santa Clara,16,250518,22.1666667,-79.7666667
br,praia grande,Praia Grande,27,250032,-24,-46.4
cl,san bernardo,San Bernardo,12,249856,-33.6,-70.716667
br,varzea grande,Várzea Grande,14,249766,-15.65,-56.133333
br,volta redonda,Volta Redonda,21,249584,-22.533333,-44.116667
br,santa maria,Santa Maria,23,249224,-29.683333,-53.8
cn,ganzhou,Ganzhou,3,249071,25.85,114.933333
es,granada,Granada,51,248942,37.178354,-3.599201
ar,formosa,Formosa,9,248756,-26.177534,-58.178139
co,palmira,Palmira,29,247991,3.539444,-76.303611
ca,oshawa,Oshawa,8,247989,43.9,-78.866667
gb,plymouth,Plymouth,K4,247298,50.396389,-4.138611
gb,nottingham,Nottingham,J8,246655,52.966667,-1.166667
de,chemnitz,Chemnitz,13,246654,50.833333,12.916667
cn,rizhao,Rizhao,25,246387,35.390278,119.545833
gb,southampton,Southampton,M4,246201,50.9,-1.4
de,brunswick,Brunswick,6,245259,52.266667,10.533333
cn,hebi,Hebi,9,244662,35.899167,114.1925
gb,reading,Reading,K7,244071,51.433333,-1
br,santa luzia,Santa Luzia,15,243506,-19.783333,-43.866667
cn,yibin,Yibin,32,242111,28.699702,104.549173
eg,aswan,Aswan,16,241282,24.0875,32.8988889
co,buenaventura,Buenaventura,29,240391,3.880099,-77.031164
de,krefeld,Krefeld,7,239908,51.333333,6.566667
cn,xiantao,Xiantao,12,239406,30.383333,113.4
fr,montpellier,Montpellier,A9,238887,43.61092,3.87723
br,gravatai,Gravataí,23,238782,-29.9426,-50.9933
cl,temuco,Temuco,4,238131,-38.733333,-72.6
es,a coruna,A Coruña,58,236010,43.366609,-8.406812
cn,yuci,Yuci,24,235929,37.680278,112.731944
eg,qena,Qena,23,235390,26.17,32.7272222
br,caruaru,Caruaru,30,235375,-8.283333,-35.966667
de,kiel,Kiel,10,235264,54.333333,10.133333
br,boa vista,Boa Vista,25,235159,2.816667,-60.666667
gb,derby,Derby,D2,235029,52.933333,-1.5
cn,linfen,Linfen,24,232566,36.088889,111.518889
de,halle,Halle,14,232452,51.5,12
be,gent,Gent,8,231493,51.05,3.716667
cm,ngaoundere,Ngaoundéré,10,231376,7.3166667,13.5833333
br,sao jose dos pinhais,São José dos Pinhais,18,229988,-25.516667,-49.216667
fi,espoo,Espoo,13,229528,60.216667,24.666667
br,ipatinga,Ipatinga,15,228750,-19.5,-42.533333
br,sumare,Sumaré,27,227982,-22.8,-47.283333
bs,nassau,Nassau,23,227936,25.0833333,-77.35
cl,iquique,Iquique,15,227501,-20.22083,-70.14306
cn,liaocheng,Liaocheng,25,226930,36.443889,115.964722
dk,arhus,Århus,18,226716,56.153423,10.22553
cn,ranghulu,Ranghulu,8,226298,46.65,124.866667
ao,huambo,Huambo,8,226177,-12.776111,15.739167
cd,bukavu,Bukavu,12,225431,-2.508333,28.860833
br,juazeiro do norte,Juazeiro do Norte,6,225234,-7.2,-39.333333
cn,tianmen,Tianmen,12,224871,30.65,113.1
bo,sucre,Sucre,1,224846,-19.0430556,-65.2591667
es,vitoria,Vitoria,59,224774,42.85,-2.666667
de,magdeburg,Magdeburg,14,224428,52.166667,11.666667
bd,narayanganj,Narayanganj,81,223773,23.6233333,90.5011111
cn,tongchuan,Tongchuan,26,223603,34.898799,108.950562
cn,xintai,Xintai,25,222459,35.900556,117.751944
es,badalona,Badalona,56,222413,41.447145,2.244789
at,graz,Graz,6,222326,47.066667,15.45
br,embu,Embu,27,221737,-23.65,-46.85
ba,banja luka,Banja Luka,2,221100,44.7758333,17.1855556
de,oberhausen,Oberhausen,7,220916,51.466667,6.85
cn,wuxue,Wuxue,12,220661,29.850578,115.552504
fr,bordeaux,Bordeaux,97,219311,44.840439,-0.5805
gm,serekunda,Serekunda,5,218790,13.4425,-16.6813889
cn,haibowan,Haibowan,20,218427,39.664722,106.812222
cm,bertoua,Bertoua,4,218217,4.5833333,13.6833333
br,imperatriz,Imperatriz,13,218110,-5.533333,-47.483333
do,san pedro de macoris,San Pedro de Macorís,24,217901,18.45,-69.3
ci,daloa,Daloa,80,217876,6.877355,-6.450221
br,colombo,Colombo,18,217002,-25.283333,-49.233333
br,mage,Magé,21,216342,-22.655556,-43.015278
cl,concepcion,Concepcion,6,215414,-36.833333,-73.05
br,taboao da serra,Taboão da Serra,27,214527,-23.6,-46.766667
et,nazret,Nazret,51,214034,8.55,39.266667
de,freiburg,Freiburg,1,213920,48,7.85
ar,catamarca,Catamarca,2,213601,-28.469574,-65.785239
cn,guangyuan,Guangyuan,32,213365,32.442015,105.822996
fr,rennes,Rennes,A2,213334,48.111981,-1.674291
de,lubeck,Lübeck,10,213171,53.866667,10.7
br,jacarei,Jacareí,27,213114,-23.316667,-45.966667
cl,rancagua,Rancagua,8,212696,-34.17083,-70.74444
es,mostoles,Móstoles,29,212504,40.320923,-3.862849
br,marilia,Marília,27,212222,-22.216667,-49.933333
cn,hailar,Hailar,20,211066,49.2,119.7
cn,daliang,Daliang,30,210411,22.850416,113.247006
cn,shuangyashan,Shuangyashan,8,209521,46.636111,131.153889
br,presidente prudente,Presidente Prudente,27,209507,-22.116667,-51.366667
cn,sanming,Sanming,7,209444,26.248611,117.618611
eg,sohag,Sohag,22,209440,26.55,31.7
br,sao leopoldo,São Leopoldo,23,209233,-29.766667,-51.15
bo,oruro,Oruro,5,208687,-17.9833333,-67.15
do,la romana,La Romana,12,208439,18.4166667,-68.9666667
bw,gaborone,Gaborone,9,208411,-24.6463889,25.9119444
cn,hangu,Hangu,28,208369,39.248889,117.789167
ao,lobito,Lobito,1,207957,-12.319722,13.599722
bd,dinajpur,Dinajpur,83,206251,25.6333333,88.6333333
br,itabuna,Itabuna,5,205666,-14.8,-39.266667
cn,suzhou,Suzhou,1,205130,33.636111,116.978889
br,sao carlos,São Carlos,27,205039,-22.016667,-47.9
au,hobart,Hobart,6,204863,-42.883209,147.331665
cn,nanchong,Nanchong,32,204368,30.775757,106.102938
cu,las tunas,Las Tunas,13,203690,20.9616667,-76.9511111
br,hortolandia,Hortolândia,27,203537,-22.85,-47.25
cm,edea,Edéa,5,203170,3.8,10.1333333
br,sao jose,São José,26,203142,-27.633333,-48.65
bj,djougou,Djougou,13,202834,9.705,1.6669444
fi,tampere,Tampere,15,202688,61.5,23.75
cn,yiyang,Yiyang,11,202608,28.589167,112.328333
cn,linxia,Linxia,15,202402,35.600278,103.206389
es,fuenlabrada,Fuenlabrada,29,202088,40.284189,-3.794147
br,mossoro,Mossoró,22,202010,-5.191389,-37.344722
es,cartagena,Cartagena,31,201977,37.605121,-0.986232
cn,yuncheng,Yuncheng,24,201950,35.023056,110.992778
br,itapevi,Itapevi,27,201752,-23.55,-46.933333
br,sete lagoas,Sete Lagoas,15,201337,-19.45,-44.233333
ci,yamoussoukro,Yamoussoukro,81,200659,6.820548,-5.276741
ec,santo domingo,Santo Domingo,18,200421,-0.25,-79.15
af,jalalabad,Jalalabad,18,200389,34.426468,70.45153
be,charleroi,Charleroi,3,200132,50.416667,4.433333
de,hagen,Hagen,7,199497,51.35,7.466667
gb,dudley,Dudley,D7,199060,52.5,-2.083333
ca,saskatoon,Saskatoon,11,198957,52.133333,-106.666667
cn,changji,Changji,13,198776,44.016667,87.316667
es,sabadell,Sabadell,56,198589,41.54329,2.109423
cn,kaiyuan,Kaiyuan,29,198423,23.697668,103.303723
es,oviedo,Oviedo,34,198250,43.363223,-5.853128
ec,machala,Machala,8,198123,-3.2666667,-79.9666667
cn,mentougou,Mentougou,22,197772,39.939167,116.091667
cl,talca,Talca,11,197480,-35.433333,-71.666667
gb,northampton,Northampton,J1,197323,52.25,-0.883333
de,rostock,Rostock,12,196833,54.083333,12.133333
de,erfurt,Erfurt,15,196719,50.983333,11.033333
br,palmas,Palmas,31,196332,-10.222778,-48.277778
br,americana,Americana,27,196026,-22.740278,-47.334444
ci,san-pedro,San-Pédro,76,195873,4.748508,-6.636301
es,alcala de henares,Alcalá de Henares,29,195152,40.482048,-3.359957
br,petrolina,Petrolina,30,194653,-9.4,-40.5
gb,portsmouth,Portsmouth,K6,194151,50.7967,-1.083333
es,santa cruz de tenerife,Santa Cruz de Tenerife,53,193852,28.460238,-16.280616
br,divinopolis,Divinópolis,15,193835,-20.15,-44.9
gb,luton,Luton,I1,193670,51.883333,-0.416667
cn,ezhou,Ezhou,12,193652,30.396072,114.886546
br,maracanau,Maracanaú,6,193532,-3.866667,-38.633333
de,kassel,Kassel,5,193117,51.316667,9.5
fr,reims,Reims,A4,192688,49.25,4.033333
cu,bayamo,Bayamo,9,192641,20.3791667,-76.6433333
gb,newcastle upon tyne,Newcastle upon Tyne,I7,192382,54.988056,-1.619444
es,leganes,Leganés,29,192000,40.326946,-3.760422
cn,humen,Humen,30,191891,22.818985,113.673064
cn,haicheng,Haicheng,19,191651,40.851582,122.747537
es,pamplona,Pamplona,32,191549,42.814075,-1.641153
co,barrancabermeja,Barrancabermeja,26,191406,7.065278,-73.854722
gb,preston,Preston,H2,190688,53.766667,-2.716667
cn,zouxian,Zouxian,25,190537,35.400556,116.965556
fr,lille,Lille,B4,189746,50.632971,3.058585
eg,beni suef,Beni Suef,18,189637,29.0638889,31.0888889
es,jerez,Jerez,51,189230,36.686454,-6.136063
cd,mwene-ditu,Mwene-Ditu,3,189215,-7,23.45
br,santarem,Santarém,16,189053,-2.433333,-54.7
cn,wanxian,Wanxian,33,188980,30.803889,108.389722
br,camacari,Camaçari,5,188763,-12.483333,-38.216667
fr,le havre,Le Havre,A7,188605,49.5,0.133333
cn,donghai,Donghai,30,188602,22.945935,115.642043
bg,burgas,Burgas,39,188554,42.5,27.4666667
cn,baiyin,Baiyin,15,188533,36.558333,104.208056
de,mainz,Mainz,8,187940,50,8.271111
cn,xiaolan,Xiaolan,30,187865,22.673811,113.231874
br,rio grande,Rio Grande,23,187842,-32.033333,-52.083333
es,terrassa,Terrassa,56,187770,41.561111,2.008056
cn,kuytun,Kuytun,13,187242,44.416667,85
br,cachoeiro de itapemirim,Cachoeiro de Itapemirim,8,187023,-20.85,-41.1
cu,pinar del rio,Pinar del Río,1,186997,22.4175,-83.6980556
cd,kikwit,Kikwit,1,186995,-5.038611,18.818056
cu,cienfuegos,Cienfuegos,8,186648,22.1461111,-80.4355556
de,hamm,Hamm,7,186289,51.683333,7.8
cl,arica,Arica,16,186000,-18.475,-70.30417
es,santander,Santander,39,185209,43.464722,-3.804444
br,araraquara,Araraquara,27,185191,-21.783333,-48.166667
ar,san luis,San Luis,19,184869,-33.295012,-66.335627
cn,zaoyang,Zaoyang,12,184509,32.127222,112.754167
ci,divo,Divo,88,184481,5.83739,-5.357229
cd,mbandaka,Mbandaka,2,184189,0.066667,18.266667
cn,quanzhou,Quanzhou,7,184143,24.913889,118.585833
cn,badaojiang,Badaojiang,5,183880,41.943056,126.428611
gb,aberdeen,Aberdeen,T5,183791,57.133333,-2.1
cn,zaozhuang,Zaozhuang,25,183665,34.864722,117.554167
ec,manta,Manta,14,183166,-0.95,-80.7333333
be,liege,Liège,4,182597,50.633333,5.566667
br,itaborai,Itaboraí,21,182500,-22.75,-42.866667
ca,barrie,Barrie,8,182070,44.383333,-79.7
de,saarbrucken,Saarbrücken,9,181779,49.233333,7
es,almeria,Almería,51,181497,36.833333,-2.45
ch,geneva,Geneva,7,181492,46.195602,6.148113
cn,anda,Anda,8,181271,46.4,125.316667
cn,shangqiu,Shangqiu,9,181218,34.383333,115.616667
at,linz,Linz,4,181163,48.3,14.3
br,rio claro,Rio Claro,27,180151,-22.4,-47.55
cd,matadi,Matadi,8,180115,-5.816667,13.45
br,indaiatuba,Indaiatuba,27,179914,-23.083333,-47.233333
cn,luan,Luan,1,179665,31.756944,116.491389
co,dos quebradas,Dos Quebradas,24,179586,4.839164,-75.667265
br,passo fundo,Passo Fundo,23,179532,-28.266667,-52.4
cn,korla,Korla,13,179465,41.759722,86.146944
cn,qianjiang,Qianjiang,12,179079,30.415128,112.88595
cn,chenzhou,Chenzhou,11,179038,25.8,113.033333
ar,la rioja,La Rioja,12,178497,-29.411048,-66.850668
gb,sunderland,Sunderland,N6,177965,54.911944,-1.383333
gb,norwich,Norwich,I9,177636,52.633333,1.3
cm,loum,Loum,5,177448,4.7161111,9.7463889
ca,regina,Regina,11,176182,50.45,-104.616667
cn,yizheng,Yizheng,4,176006,32.269167,119.178889
fi,turku,Turku,15,175944,60.45,22.283333
cn,honghu,Honghu,12,175761,29.816667,113.466667
cn,jiutai,Jiutai,5,175115,44.1525,125.832778
gb,bournemouth,Bournemouth,B2,175017,50.716667,-1.883333
br,cotia,Cotia,27,174832,-23.616667,-46.933333
cn,karamay,Karamay,13,174828,45.600376,84.860142
cn,bozhou,Bozhou,1,174140,33.877222,115.770278
ar,rio cuarto,Rio Cuarto,5,174058,-33.130671,-64.349918
de,herne,Herne,7,173121,51.55,7.216667
gq,bata,Bata,8,173036,1.85,9.75
de,mulheim,Mülheim,7,172779,51.433333,6.883333
cn,licheng,Licheng,30,172775,23.295537,113.828357
cn,weinan,Weinan,26,172321,34.503546,109.508908
gb,walsall,Walsall,O8,172142,52.6,-2
ci,korhogo,Korhogo,87,172114,9.458031,-5.629608
br,francisco morato,Francisco Morato,27,171793,-23.279503,-46.746403
cn,jian,Jian,3,171718,27.05,114.9
cn,dongling,Dongling,19,171454,41.814444,123.575833
gb,swansea,Swansea,Z1,170885,51.633333,-3.966667
cd,uvira,Uvira,12,170422,-3.406667,29.145833
fr,saint-etienne,Saint-Étienne,B9,170416,45.435382,4.391051
ec,portoviejo,Portoviejo,14,170326,-1.05,-80.45
br,aracatuba,Araçatuba,27,170028,-21.2,-50.416667
cn,fuyang,Fuyang,1,170023,32.9,115.816667
cn,laiyang,Laiyang,25,169594,36.975833,120.713611
es,alcorcon,Alcorcón,29,169343,40.346467,-3.812453
et,bahir dar,Bahir Dar,46,168929,11.6,37.383333
es,burgos,Burgos,55,168319,42.350221,-3.675273
bd,jamalpur,Jamalpur,81,167914,24.9166667,89.9333333
br,ferraz de vasconcelos,Ferraz de Vasconcelos,27,167904,-23.533333,-46.366667
es,getafe,Getafe,29,167550,40.308423,-3.70596
bd,sirajganj,Sirajganj,81,167501,24.45,89.7166667
eg,benha,Benha,12,167070,30.4608333,31.1875
br,arapiraca,Arapiraca,2,166566,-9.75,-36.65
cn,fuling,Fuling,33,166507,29.702222,107.391944
cn,gaozhou,Gaozhou,30,166069,21.939243,110.846074
cn,wulanhaote,Wulanhaote,20,165846,46.083333,122.083333
cz,plzen,Plzen,87,165531,49.75,13.366667
co,tulua,Tuluá,29,165504,4.084656,-76.19536
de,osnabruck,Osnabrück,6,165372,52.266667,8.05
de,solingen,Solingen,7,165192,51.183333,7.083333
cn,jiaozhou,Jiaozhou,25,165026,36.283889,120.003333
cn,hengshan,Hengshan,8,164844,45.2,130.916667
br,lages,Lages,26,164679,-27.8,-50.316667
ch,basel,Basel,4,164474,47.558395,7.573271
ba,zenica,Zenica,1,164422,44.2013889,17.9063889
br,barra mansa,Barra Mansa,21,164054,-22.533333,-44.183333
br,nossa senhora do socorro,Nossa Senhora do Socorro,28,163996,-10.866667,-37.116667
bj,parakou,Parakou,10,163759,9.35,2.6166667
gb,southend-on-sea,Southend-on-Sea,M5,163378,51.533333,0.7
cn,tongzhou,Tongzhou,22,163326,39.905278,116.599444
co,envigado,Envigado,2,163010,6.170643,-75.585307
cn,anbu,Anbu,30,162964,23.448953,116.680916
de,ludwigshafen,Ludwigshafen,8,162514,49.481111,8.435278
gb,swindon,Swindon,N9,162439,51.516667,-1.783333
br,dourados,Dourados,11,162206,-22.216667,-54.8
br,criciuma,Criciúma,26,161957,-28.666667,-49.383333
af,qunduz,Qunduz,24,161943,36.728955,68.857001
cl,coquimbo,Coquimbo,7,161319,-29.953333,-71.343611
de,oldenburg,Oldenburg,6,160347,53.166667,8.2
br,chapeco,Chapecó,26,160160,-27.083333,-52.983333
cl,puerto montt,Puerto Montt,14,160055,-41.469848,-72.944745
cn,zhicheng,Zhicheng,12,159383,30.295556,111.504722
bo,tarija,Tarija,9,159275,-21.5166667,-64.75
de,leverkusen,Leverkusen,7,159088,51.016667,6.983333
fr,angers,Angers,B5,158585,47.473806,-0.54774
br,sabara,Sabará,15,158359,-19.9,-43.8
cn,huzhou,Huzhou,2,158320,30.870301,120.093297
br,barreiras,Barreiras,5,158296,-12.133333,-45
ci,anyama,Anyama,82,158250,5.494622,-4.051831
br,sobral,Sobral,6,157998,-3.7,-40.35
eg,talkha,Talkha,1,157756,31.0530556,31.3738889
bg,ruse,Ruse,53,157519,43.8563889,25.9708333
cn,nanpiao,Nanpiao,19,157044,41.098218,120.747923
gq,malabo,Malabo,4,156039,3.75,8.7833333
cn,yichun,Yichun,8,155762,47.7,128.9
br,itajai,Itajaí,26,155719,-26.883333,-48.65
ar,concordia,Concordia,8,155686,-31.392959,-58.02089
br,ilheus,Ilhéus,5,155503,-14.816667,-39.033333
es,salamanca,Salamanca,55,155175,40.9681,-5.66202
es,albacete,Albacete,54,155083,38.995845,-1.857773
cn,beipiao,Beipiao,19,154999,41.791944,120.779167
fr,grenoble,Grenoble,B9,154853,45.171546,5.722387
cn,guangshui,Guangshui,12,154771,31.616111,113.815556
cd,butembo,Butembo,11,154649,0.15,29.283333
gb,oxford,Oxford,K2,154567,51.75,-1.25
cl,la serena,La Serena,7,154523,-29.907778,-71.254167
cn,leshan,Leshan,32,154477,29.562275,103.76386
fr,toulon,Toulon,B8,154465,43.117705,5.941712
cd,gandajika,Gandajika,4,154414,-6.75,23.95
cn,zhaodong,Zhaodong,8,154406,46.083333,125.983333
ec,ambato,Ambato,19,154369,-1.25,-78.6166667
au,cairns,Cairns,4,154318,-16.92304,145.766251
do,san cristobal,San Cristóbal,33,154045,18.4166667,-70.1
cy,lemesos,Lemesos,5,154018,34.675,33.0333333
cn,xinzhou,Xinzhou,24,154003,38.409167,112.733333
et,gondar,Gondar,46,153942,12.6,37.466667
fr,dijon,Dijon,A1,153692,47.316667,5.016667
br,angra dos reis,Angra dos Reis,21,153637,-23,-44.3
cn,boshan,Boshan,25,153596,36.483333,117.833333
cn,chuncheng,Chuncheng,30,153547,22.166667,111.783333
br,nova friburgo,Nova Friburgo,21,153363,-22.266667,-42.533333
de,neuss,Neuss,7,152975,51.2,6.683333
cn,linhai,Linhai,2,152937,28.85,121.116667
cn,dingzhou,Dingzhou,10,152934,38.513056,114.995556
br,rondonopolis,Rondonópolis,14,152921,-16.466667,-54.633333
cn,weihai,Weihai,25,152595,37.501667,122.113611
cn,chenghai,Chenghai,30,152453,23.461319,116.770071
cn,deyang,Deyang,32,152194,31.130192,104.381981
cn,yichun,Yichun,3,152169,27.833333,114.4
cn,longfeng,Longfeng,8,152074,46.55,125.116667
cn,kaili,Kaili,18,151956,26.5,107.583333
ca,abbotsford,Abbotsford,2,151685,49.05,-122.3
br,itapecerica da serra,Itapecerica da Serra,27,151608,-23.716667,-46.833333
gb,dundee,Dundee,U3,151593,56.5,-2.966667
cn,qingyuan,Qingyuan,30,151287,23.7,113.033333
ao,benguela,Benguela,1,151235,-12.578333,13.407222
br,guarapuava,Guarapuava,18,150851,-25.383333,-51.45
cn,gaomi,Gaomi,25,150793,36.383333,119.752778
cn,loudi,Loudi,11,150684,27.734444,111.994444
dz,warqla,Warqla,50,150611,31.9575,5.3277778
fr,brest,Brest,A2,150554,48.390756,-4.486165
cn,huangyan,Huangyan,2,150448,28.647778,121.259444
au,geelong,Geelong,7,150438,-38.153461,144.358093
cl,chillan,Chillan,6,150396,-36.6,-72.116667
br,parnamirim,Parnamirim,22,150347,-5.916667,-35.25
gb,poole,Poole,K5,150092,50.716667,-2
gb,huddersfield,Huddersfield,G8,149018,53.65,-1.783333
br,camaragibe,Camaragibe,30,148966,-8.016667,-34.966667
cn,dunhua,Dunhua,5,148844,43.3725,128.2425
cn,yulin,Yulin,16,148485,22.633333,110.15
am,gyumri,Gyumri,7,148383,40.7894444,43.8475
cn,chizhou,Chizhou,1,148375,30.657778,117.483056
cn,sujiatun,Sujiatun,19,148113,41.659167,123.339167
cn,honggang,Honggang,8,147977,46.466667,124.866667
dz,medea,Médéa,6,147710,36.2675,2.75
fr,le mans,Le Mans,B5,147413,48.000386,0.204709
br,nilopolis,Nilópolis,21,147283,-22.808487,-43.419792
bh,manama,Manama,2,147097,26.2361111,50.5830556
cd,kalemie,Kalemie,5,147065,-5.933333,29.2
cu,matanzas,Matanzas,3,146738,23.0411111,-81.5775
br,pocos de caldas,Poços de Caldas,15,146590,-21.8,-46.566667
cn,qujing,Qujing,29,146015,25.483333,103.783333
cn,hanzhong,Hanzhong,26,145986,33.072778,107.030278
dk,odense,Odense,21,145931,55.393475,10.394935
es,huelva,Huelva,51,145901,37.271447,-6.949464
br,maraba,Marabá,16,145865,-5.35,-49.116667
cn,beian,Beian,8,145670,48.266667,126.6
cn,taicheng,Taicheng,30,145440,22.251347,112.779904
at,salzburg,Salzburg,5,145310,47.8,13.033333
de,potsdam,Potsdam,11,145291,52.4,13.066667
de,heidelberg,Heidelberg,1,144703,49.416667,8.7
cn,acheng,Acheng,8,144665,45.545452,126.977031
cm,kumba,Kumba,9,144428,4.6438889,9.4386111
cn,jinchang,Jinchang,15,144363,38.495278,102.173889
gb,york,York,Q5,144202,53.954115,-1.064262
cd,goma,Goma,11,144151,-1.679167,29.222778
ci,abengourou,Abengourou,85,144074,6.729722,-3.496389
gh,teshie,Teshie,8,144012,5.5833333,-0.1
gb,ipswich,Ipswich,N5,143768,52.083333,1.166667
br,luziania,Luziânia,29,143601,-16.25,-47.933333
gb,blackpool,Blackpool,A9,143101,53.816667,-3.05
de,paderborn,Paderborn,7,143096,51.716667,8.766667
cl,calama,Calama,3,143085,-22.466667,-68.933333
af,gazni,Gazni,8,143049,33.550833,68.4225
gh,cape coast,Cape Coast,4,143044,5.1,-1.25
br,macae,Macaé,21,143031,-22.383333,-41.783333
gb,middlesbrough,Middlesbrough,K9,142708,54.572778,-1.162778
ar,comodoro rivadavia,Comodoro Rivadavia,7,142597,-45.864135,-67.496558
ba,tuzla,Tuzla,1,142484,44.5427778,18.6694444
bd,nawabganj,Nawabganj,83,142373,24.6,88.2833333
cn,jinhua,Jinhua,2,142206,29.107778,119.654722
fr,aix-en-provence,Aix-en-Provence,B8,142133,43.528695,5.448791
es,logrono,Logroño,27,142103,42.466667,-2.45
cu,ciego de avila,Ciego de Ávila,7,142032,21.84,-78.7619444
cn,jieshou,Jieshou,1,141993,33.25,115.35
br,ibirite,Ibirité,15,141376,-20.033333,-44.066667
gb,bolton,Bolton,B1,141331,53.583333,-2.433333
bo,potosi,Potosí,7,141254,-19.5836111,-65.7530556
br,paranagua,Paranaguá,18,141014,-25.516667,-48.5
cn,gongzhuling,Gongzhuling,5,140909,43.507222,124.812222
cn,sanbu,Sanbu,30,140454,22.36078,112.688088
ci,man,Man,78,140217,7.412513,-7.55383
gb,peterborough,Peterborough,K3,140142,52.583333,-0.25
cn,yushan,Yushan,4,140039,31.377623,120.954305
de,darmstadt,Darmstadt,5,139757,49.870556,8.649444
cn,altay,Altay,13,139341,47.866667,88.116667
gb,stockport,Stockport,N2,139053,53.4,-2.15
cn,huadian,Huadian,5,139047,42.963333,126.747778
gb,brighton,Brighton,B6,139001,50.833333,-0.15
au,townsville,Townsville,4,138959,-19.26639,146.805695
fr,amiens,Amiens,B6,138816,49.9,2.3
cn,fuyu,Fuyu,5,138704,45.183333,124.816667
cn,chaohu,Chaohu,1,138463,31.6,117.866667
br,parnaiba,Parnaíba,20,138011,-2.909167,-41.774722
bd,pabna,Pabna,81,137904,24,89.25
br,juazeiro,Juàzeiro,5,137807,-9.5,-40.5
bg,stara zagora,Stara Zagora,59,137760,42.4327778,25.6419444
es,cadiz,Cadiz,51,137698,36.515789,-6.279692
br,itu,Itu,27,137589,-23.266667,-47.316667
eg,dekernes,Dekernes,1,137559,31.0883333,31.5969444
fr,nimes,Nîmes,A9,137532,43.833778,4.359623
cn,jieshi,Jieshi,30,137444,22.813377,115.825742
br,castanhal,Castanhal,16,137410,-1.3,-47.916667
fr,clermont-ferrand,Clermont-Ferrand,98,137364,45.779657,3.086281
gr,iraklion,Iráklion,45,137155,35.325,25.1305556
cn,hami,Hami,13,137072,42.8,93.45
cn,shizuishan,Shizuishan,21,136570,39.041944,106.395833
br,sao caetano do sul,São Caetano do Sul,27,136456,-23.6,-46.566667
cn,gejiu,Gejiu,29,136135,23.306022,103.163512
et,dese,Dese,46,136080,11.133333,39.633333
cl,osorno,Osorno,14,135774,-40.566667,-73.15
br,queimados,Queimados,21,135742,-22.722897,-43.556316
cd,kindu,Kindu,10,135690,-2.95,25.95
gb,west bromwich,West Bromwich,L7,135618,52.516667,-2
fr,tours,Tours,A3,135143,47.394836,0.703977
cn,yongan,Yongan,7,134858,25.98,117.364167
co,cartago,Cartago,29,134829,4.746389,-75.911667
fr,limoges,Limoges,B1,134549,45.831534,1.257805
de,wurzburg,Würzburg,2,134499,49.787778,9.936111
gb,slough,Slough,M1,134072,51.5,-0.583333
cn,dali,Dali,29,134040,25.7,100.183333
cl,valdivia,Valdivia,17,133420,-39.8,-73.233333
et,awassa,Awassa,54,133120,7.05,38.466667
es,badajoz,Badajoz,57,133042,38.877894,-6.970613
cn,puqi,Puqi,12,132891,29.716667,113.883333
gn,nzerekore,Nzérékoré,38,132842,7.7472222,-8.8238889
cn,ankang,Ankang,26,132654,32.68,109.017222
bg,pleven,Pleven,50,132542,43.4166667,24.6166667
bd,gazipur,Gazipur,81,132249,23.8,90.65
cn,zalantun,Zalantun,20,132224,48,122.716667
br,pindamonhangaba,Pindamonhangaba,27,132220,-22.916667,-45.466667
cn,dawukou,Dawukou,21,131880,39.041944,106.395833
br,sapucaia,Sapucaia,23,130939,-29.833333,-51.15
by,pinsk,Pinsk,1,130777,52.1213889,26.0727778
cn,daxian,Daxian,32,130749,31.215921,107.500922
cn,shuangcheng,Shuangcheng,8,130710,45.35,126.283333
ar,san nicolas,San Nicolas,1,130705,-33.335784,-60.225233
cn,wuning,Wuning,2,130387,29.258873,120.231083
cn,haicheng,Haicheng,30,130386,22.975326,115.331794
co,maicao,Maicao,17,130351,11.383208,-72.243208
co,florencia,Florencia,8,130339,1.614382,-75.606229
cn,jiazi,Jiazi,30,130298,22.877914,116.067054
co,girardot,Girardot,33,130292,4.298659,-74.804681
cl,quilpue,Quilpue,1,130264,-33.045,-71.449444
br,jaragua do sul,Jaraguá do Sul,26,130132,-26.483333,-49.066667
cn,wuda,Wuda,20,129922,39.499444,106.711667
de,ratisbon,Ratisbon,2,129643,49.015,12.095556
ca,sherbrooke,Sherbrooke,10,129447,45.4,-71.9
cl,copiapo,Copiapo,5,129281,-27.366667,-70.333333
cn,leiyang,Leiyang,11,129116,26.402382,112.859078
bd,satkhira,Satkhira,82,128933,22.7166667,89.1
gb,gloucester,Gloucester,E6,128722,51.833333,-2.166667
fi,oulu,Oulu,8,128618,65.016667,25.466667
gb,cambridge,Cambridge,C3,128489,52.2,0.116667
es,tarragona,Tarragona,56,128391,41.116667,1.25
et,jimma,Jimma,51,128330,7.666667,36.833333
cu,manzanillo,Manzanillo,9,128194,20.3433333,-77.1166667
fr,metz,Metz,B2,128021,49.115461,6.175875
cn,xuanzhou,Xuanzhou,1,127758,30.9525,118.755278
es,leon,León,55,127480,42.600031,-5.570316
br,jequie,Jequié,5,127479,-13.85,-40.083333
cn,huaihua,Huaihua,11,127322,27.549444,109.959167
cn,jiangyou,Jiangyou,32,127225,31.766667,104.716667
cu,sancti spiritus,Sancti Spíritus,14,127073,21.9297222,-79.4425
cd,isiro,Isiro,0,127068,2.766667,27.616667
cn,xichang,Xichang,32,126787,27.896422,102.263415
cn,danshui,Danshui,30,126701,22.798396,114.467158
ar,mercedes,Mercedes,19,126559,-33.674359,-65.461405
co,sogamoso,Sogamoso,36,126553,5.714344,-72.933908
cn,macheng,Macheng,12,126366,31.178333,115.031944
br,itapetininga,Itapetininga,27,126245,-23.6,-48.05
br,patos de minas,Patos de Minas,15,126236,-18.583333,-46.533333
fr,villeurbanne,Villeurbanne,B9,126230,45.765502,4.875522
cn,huicheng,Huicheng,30,125919,23.038449,116.28988
cn,linchuan,Linchuan,3,125847,27.938274,116.292688
cn,longyan,Longyan,7,125778,25.107222,117.0225
gb,watford,Watford,F8,125708,51.666667,-0.4
cn,xiazhen,Xiazhen,25,125667,34.802222,117.111667
ci,gagnoa,Gagnoa,79,125647,6.131934,-5.950601
cl,los angeles,Los Angeles,6,125431,-37.466667,-72.35
cn,haimen,Haimen,30,125427,23.193486,116.614218
by,orsha,Orsha,7,125347,54.5152778,30.4052778
cn,ruian,Ruian,2,125208,27.776047,120.658588
cn,shahe,Shahe,10,125132,36.854722,114.4975
bj,bohicon,Bohicon,18,125116,7.2,2.0666667
ca,kelowna,Kelowna,2,125110,49.9,-119.483333
br,braganca paulista,Bragança Paulista,27,125099,-22.95,-46.566667
ar,san rafael,San Rafael,13,125033,-34.617717,-68.330066
cn,suining,Suining,32,124924,30.508017,105.573324
do,san francisco de macoris,San Francisco de Macorís,6,124772,19.3,-70.25
cn,yushu,Yushu,5,124736,44.8,126.533333
ec,riobamba,Riobamba,6,124478,-1.6666667,-78.6333333
br,timon,Timon,13,124429,-5.1,-42.816667
cn,laiwu,Laiwu,25,124108,36.192778,117.656944
br,teresopolis,Teresópolis,21,123980,-22.424064,-42.968013
cn,jiupu,Jiupu,19,123843,41.066667,122.95
do,higuey,Higüey,10,123803,18.6166667,-68.7
cn,baoshan,Baoshan,8,123791,46.558611,131.424444
de,gottingen,Göttingen,6,123570,51.533333,9.933333
br,uruguaiana,Uruguaiana,23,123482,-29.75,-57.083333
ci,soubre,Soubré,76,123214,5.783766,-6.59388
br,porto seguro,Pôrto Seguro,5,123196,-16.433333,-39.083333
de,wolfsburg,Wolfsburg,6,123184,52.433333,10.8
cn,luoyang,Luoyang,30,123144,23.162442,114.273423
ch,bern,Bern,5,123018,46.916667,7.466667
cn,jiaohe,Jiaohe,5,123018,43.728611,127.344722
de,recklinghausen,Recklinghausen,7,122727,51.616667,7.2
br,alagoinhas,Alagoinhas,5,122692,-12.116667,-38.433333
cn,huangzhou,Huangzhou,12,122563,30.45,114.8
br,palhoca,Palhoça,26,122425,-27.633333,-48.666667
cn,shishou,Shishou,12,122411,29.716667,112.4
cn,zhoucun,Zhoucun,25,122402,36.816667,117.816667
cn,jiayuguan,Jiayuguan,15,122396,39.816667,98.3
dk,aalborg,Aalborg,19,122219,57.035498,9.941163
br,barbacena,Barbacena,15,122213,-21.233333,-43.766667
al,durres,Durrës,42,122034,41.3230556,19.4413889
de,heilbronn,Heilbronn,1,121822,49.140278,9.22
cn,nancha,Nancha,8,121367,47.133333,129.266667
br,cachoeirinha,Cachoeirinha,23,121086,-29.95,-51.083333
de,bottrop,Bottrop,7,120829,51.516667,6.916667
de,ulm,Ulm,1,120745,48.4,10
de,offenbach,Offenbach,5,120641,50.1,8.766667
de,ingolstadt,Ingolstadt,2,120598,48.766667,11.433333
cn,fengcheng,Fengcheng,19,120514,40.453611,124.071667
de,pforzheim,Pforzheim,1,120366,48.883333,8.7
cn,daan,Daan,33,120340,29.382222,106.015
bd,chandpur,Chandpur,80,120183,23.15,90.7166667
fr,besancon,Besançon,A6,120139,47.248778,6.018152
do,puerto plata,Puerto Plata,18,119908,19.8,-70.6833333
br,santa rita,Santa Rita,17,119895,-7.133333,-34.966667
ca,trois-rivieres,Trois-Rivières,10,119693,46.35,-72.55
de,bremerhaven,Bremerhaven,3,119688,53.55,8.583333
ec,quevedo,Quevedo,13,119436,-1.0333333,-79.45
es,lleida,Lleida,56,119320,41.616667,0.633333
br,jau,Jaú,27,119209,-22.3,-48.55
gh,obuasi,Obuasi,2,119063,6.2,-1.6666667
cn,xingyi,Xingyi,18,119000,25.05,104.983333
cn,lasa,Lasa,14,118721,29.65,91.1
cn,bantou,Bantou,7,118557,25.443056,118.403333
br,cubatao,Cubatão,27,118412,-23.883333,-46.416667
de,remscheid,Remscheid,7,118230,51.183333,7.2
cd,bandundu,Bandundu,1,118203,-3.316667,17.366667
fr,orleans,Orléans,A3,118190,47.902891,1.903887
cn,liusha,Liusha,30,118023,23.310722,116.168691
ch,lausanne,Lausanne,23,118015,46.533333,6.666667
co,buga,Buga,29,118006,3.900889,-76.297829
ec,loja,Loja,12,117796,-4,-79.2166667
cd,gemena,Gemena,2,117631,3.25,19.766667
cn,shunyi,Shunyi,22,117623,40.125,116.645278
gb,rotherham,Rotherham,L3,117619,53.433333,-1.35
co,tunja,Tunja,36,117480,5.535278,-73.367778
cl,punta arenas,Punta Arenas,10,117432,-53.15,-70.916667
br,caxias,Caxias,13,117393,-4.833333,-43.35
gb,newport,Newport,Y6,117327,51.583333,-2.983333
cn,longjing,Longjing,5,117185,42.771389,129.423333
gn,kindia,Kindia,16,117095,10.0666667,-12.85
cm,nkongsamba,Nkongsamba,5,117076,4.9533333,9.9325
cn,yidu,Yidu,25,117056,36.696667,118.479722
be,brugge,Brugge,9,116709,51.216667,3.233333
br,varginha,Varginha,15,116573,-21.55,-45.433333
cn,zhuozhou,Zhuozhou,10,116310,39.481111,115.963333
cn,huangpu,Huangpu,30,116307,23.053325,113.512148
es,jaen,Jaén,51,116291,37.772404,-3.79013
cn,yakeshi,Yakeshi,20,116284,49.283333,120.733333
cn,binzhou,Binzhou,25,115893,37.366667,118.016667
ca,guelph,Guelph,8,115763,43.55,-80.25
cn,yingcheng,Yingcheng,30,115538,24.165876,113.412675
es,marbella,Marbella,51,115484,36.510485,-4.885745
cn,lengshuijiang,Lengshuijiang,11,115399,27.688056,111.429444
cn,wencheng,Wencheng,25,115370,37.193611,122.051111
fr,caen,Caen,99,115358,49.197188,-0.326822
de,cottbus,Cottbus,11,115246,51.766667,14.333333
br,pouso alegre,Pouso Alegre,15,115203,-22.216667,-45.933333
gh,takoradi,Takoradi,9,114989,4.8833333,-1.75
br,araguaina,Araguaína,31,114959,-7.16,-48.0575
es,mataro,Mataró,56,114923,41.542113,2.444503
cn,mingshui,Mingshui,25,114858,36.716667,117.5
ca,kingston,Kingston,8,114243,44.233333,-76.483333
cn,yuyao,Yuyao,2,114177,30.05,121.149444
gn,kankan,Kankan,32,114103,10.3833333,-9.3
br,botucatu,Botucatu,27,113865,-22.866667,-48.433333
cn,pingshan,Pingshan,30,113631,22.993761,114.713109
de,reutlingen,Reutlingen,1,113625,48.483333,9.216667
ao,kuito,Kuito,2,113624,-12.383333,16.933333
cn,qianguo,Qianguo,5,113611,45.117115,124.856761
cn,maba,Maba,30,113609,24.684125,113.598386
br,jandira,Jandira,27,113607,-23.516667,-46.9
gb,exeter,Exeter,D4,113119,50.7,-3.533333
de,furth,Fürth,2,112959,49.466667,10.966667
gb,eastbourne,Eastbourne,E2,112906,50.8,0.25
cn,taonan,Taonan,5,112819,45.333333,122.783333
cn,haikou,Haikou,29,112644,24.779854,102.575483
cn,shaowu,Shaowu,7,112585,27.340891,117.483096
at,innsbruck,Innsbruck,7,112467,47.266667,11.4
bd,faridpur,Faridpur,81,112200,23.6,89.8333333
by,mazyr,Mazyr,2,112136,52.05,29.2666667
cn,beibei,Beibei,33,112019,29.825556,106.433889
es,torrejon de ardoz,Torrejón de Ardoz,29,111998,40.455354,-3.469734
fr,mulhouse,Mulhouse,C1,111972,47.738082,7.347932
br,ribeirao pires,Ribeirão Pires,27,111890,-23.716667,-46.416667
cm,mbouda,Mbouda,8,111690,5.6333333,10.25
de,salzgitter,Salzgitter,6,111622,52.083333,10.333333
cv,praia,Praia,17,111611,14.9166667,-23.5166667
br,conselheiro lafaiete,Conselheiro Lafaiete,15,111598,-20.666667,-43.8
br,resende,Resende,21,111515,-22.4679,-44.4575
br,araucaria,Araucária,18,111303,-25.583333,-49.416667
cn,dongtai,Dongtai,4,110988,32.852311,120.309472
br,atibaia,Atibaia,27,110970,-23.124167,-46.562222
br,varzea paulista,Várzea Paulista,27,110938,-23.2,-46.833333
cn,encheng,Encheng,30,110921,22.183892,112.302597
ca,waterloo,Waterloo,8,110800,43.466667,-80.533333
cn,zhuji,Zhuji,2,110721,29.718765,120.242333
cn,dongli,Dongli,30,110107,20.791389,110.349722
ec,milagro,Milagro,10,110093,-2.0666667,-79.5333333
br,garanhuns,Garanhuns,30,110087,-8.9,-36.483333
cn,linqing,Linqing,25,110046,36.845556,115.711667
ar,san carlos de bariloche,San Carlos de Bariloche,16,110044,-41.140293,-71.301369
cn,zhucheng,Zhucheng,25,109968,35.994722,119.3975
cn,linshui,Linshui,10,109955,36.424722,114.204722
cn,hailun,Hailun,8,109881,47.45,126.933333
fr,boulogne-billancourt,Boulogne-Billancourt,A8,109765,48.835684,2.247342
cn,shilong,Shilong,30,109733,23.112269,113.842476
ca,sudbury,Sudbury,8,109724,46.5,-80.966667
bj,kandi,Kandi,7,109705,11.1341667,2.9386111
br,araruama,Araruama,21,109638,-22.883333,-42.333333
cn,tieli,Tieli,8,109636,46.95,128.05
br,catanduva,Catanduva,27,109615,-21.133333,-48.966667
cn,didao,Didao,8,109561,45.366667,130.8
cn,heihe,Heihe,8,109427,50.266667,127.466667
gb,colchester,Colchester,E4,109415,51.883333,0.9
cn,zhaotong,Zhaotong,29,109400,27.316667,103.716667
cn,wuwei,Wuwei,15,109319,37.928056,102.641389
de,moers,Moers,7,109167,51.45,6.65
ga,port-gentil,Port-Gentil,8,109163,-0.7166667,8.7833333
cn,hulan,Hulan,8,109104,45.983333,126.6
cn,rongcheng,Rongcheng,12,108908,29.845047,112.951441
cn,yingzhong,Yingzhong,12,108883,31.166111,112.583056
br,franco da rocha,Franco da Rocha,27,108860,-23.324821,-46.718475
cn,dehui,Dehui,5,108818,44.533333,125.7
cn,yaan,Yaan,32,108758,29.989788,103.003694
ci,agboville,Agboville,74,108684,5.92801,-4.213186
ec,ibarra,Ibarra,11,108666,0.35,-78.1166667
af,baglan,Baglan,3,108481,36.130684,68.708286
co,giron,Girón,26,108468,7.068205,-73.169809
cn,nehe,Nehe,8,108253,48.483333,124.833333
br,cabo frio,Cabo Frio,21,108241,-22.883333,-42.016667
de,siegen,Siegen,7,108228,50.866667,8.033333
cn,pingliang,Pingliang,15,108156,35.539167,106.686111
de,koblenz,Koblenz,8,108146,50.35,7.6
fr,rouen,Rouen,A7,108101,49.433333,1.083333
cn,yanan,Yanan,26,107960,36.598889,109.491667
cn,jiangyin,Jiangyin,3,107918,31.905063,120.26851
cn,jiangyin,Jiangyin,4,107918,31.928249,120.312567
ar,trelew,Trelew,4,107883,-43.250075,-65.313295
cn,shaping,Shaping,30,107589,22.477547,112.845784
ar,san martin,San Martin,13,107554,-33.081031,-68.468138
br,araras,Araras,27,107465,-22.366667,-47.383333
br,poa,Poá,27,107434,-23.533333,-46.333333
bd,sherpur,Sherpur,81,107431,25.0166667,90.0166667
br,vitoria de santo antao,Vitória de Santo Antão,30,107385,-8.116667,-35.3
br,apucarana,Apucarana,18,107086,-23.55,-51.483333
cd,ilebo,Ilebo,0,107086,-4.316667,20.583333
gb,crawley,Crawley,P6,107061,51.116667,-0.183333
gb,sutton coldfield,Sutton Coldfield,A7,107030,52.566667,-1.816667
fr,nancy,Nancy,B2,106857,48.69211,6.187756
cn,lianran,Lianran,29,106795,24.922707,102.484959
de,bergisch gladbach,Bergisch Gladbach,7,106611,50.983333,7.133333
cn,longjiang,Longjiang,8,106384,47.330278,123.183611
cn,buhe,Buhe,12,106347,30.287567,112.229788
be,namur,Namur,7,106284,50.466667,4.866667
gb,blackburn,Blackburn,A8,106154,53.75,-2.483333
br,santa cruz do sul,Santa Cruz do Sul,23,106115,-29.716667,-52.433333
cn,zhaoyang,Zhaoyang,4,105918,32.939167,119.834167
br,guaratingueta,Guaratinguetá,27,105882,-22.815156,-45.18923
cn,anqiu,Anqiu,25,105665,36.434167,119.1925
bd,bhairab bazar,Bhairab Bazar,81,105470,24.0666667,90.9666667
cn,tengzhou,Tengzhou,25,105456,35.077061,117.151758
br,linhares,Linhares,8,105084,-19.416667,-40.066667
cn,huangcun,Huangcun,22,104904,39.721389,116.329167
fr,perpignan,Perpignan,A9,104783,42.696172,2.897098
gb,oldham,Oldham,K1,104783,53.55,-2.116667
es,algeciras,Algeciras,51,104766,36.133257,-5.450511
es,dos hermanas,Dos Hermanas,51,104666,37.282867,-5.920884
ba,mostar,Mostar,1,104517,43.3433333,17.8080556
de,gera,Gera,15,104463,50.866667,12.083333
cn,pulandian,Pulandian,19,104277,39.395278,121.966944
au,albury,Albury,2,104261,-36.07494,146.923935
et,debre zeyit,Debre Zeyit,51,104234,8.75,38.983333
gh,sekondi,Sekondi,9,104194,4.9333333,-1.7
cn,meilu,Meilu,30,104168,21.45713,110.765907
cn,jinchengjiang,Jinchengjiang,16,104138,24.7,108.033333
cn,jishu,Jishu,5,103988,44.316667,126.8
cn,zhoucheng,Zhoucheng,29,103829,24.355,102.542222
cn,xiangdong,Xiangdong,3,103815,27.7,113.7
af,gardez,Gardez,36,103732,33.597439,69.225922
br,esmeraldas,Esmeraldas,15,103252,-19.75,-44.316667
gb,cheltenham,Cheltenham,E6,103249,51.9,-2.083333
de,hildesheim,Hildesheim,6,102958,52.15,9.966667
cu,palma soriano,Palma Soriano,15,102830,20.2172222,-75.9988889
cz,olomouc,Olomouc,84,102792,49.59404,17.25119
de,erlangen,Erlangen,2,102781,49.589722,11.003889
gb,chelmsford,Chelmsford,E4,102671,51.733333,0.483333
gb,saint helens,Saint Helens,M9,102555,53.45,-2.733333
ao,lubango,Lubango,9,102541,-14.916667,13.5
cl,curico,Curico,11,102439,-34.983333,-71.233333
do,la vega,La Vega,30,102431,19.2166667,-70.5166667
cn,jishou,Jishou,11,102332,28.316667,109.716667
br,birigui,Birigui,27,102279,-21.3,-50.316667
cn,rongcheng,Rongcheng,29,102157,26.266667,104.016667
es,alcobendas,Alcobendas,29,101860,40.543933,-3.635688
gm,brikama,Brikama,5,101805,13.2675,-16.6461111
cn,wufeng,Wufeng,29,101728,27.45,104.833333
by,salihorsk,Salihorsk,6,101614,52.8,27.5333333
co,malambo,Malambo,4,101536,10.859533,-74.773861
gb,basildon,Basildon,E4,101363,51.566667,0.466667
br,barretos,Barretos,27,101222,-20.55,-48.55
br,colatina,Colatina,8,101193,-19.533333,-40.616667
gb,gillingham,Gillingham,I3,101187,51.4,0.566667
br,teofilo otoni,Teófilo Otoni,15,101172,-17.85,-41.5
de,witten,Witten,7,101122,51.433333,7.333333
am,vanadzor,Vanadzor,6,101099,40.8127778,44.4883333
ee,tartu,Tartu,18,101092,58.3661111,26.7361111
br,guaiba,Guaíba,23,101026,-30.111111,-51.316667
cn,qinzhou,Qinzhou,16,100996,21.95,108.616667
br,guarapari,Guarapari,8,100927,-20.666667,-40.5
br,coronel fabriciano,Coronel Fabriciano,15,100918,-19.516667,-42.633333
al,elbasan,Elbasan,43,100903,41.1125,20.0822222
cn,zhaocheng,Zhaocheng,25,100774,37.359167,120.396389
br,itaguai,Itaguaí,21,100756,-22.870755,-43.773821
de,trier,Trier,8,100649,49.75,6.633333
cn,houma,Houma,24,100630,35.61358,111.356601
eg,qalyub,Qalyub,12,100521,30.1830556,31.2052778
cn,liancheng,Liancheng,30,100341,21.646734,110.28172
cn,linxi,Linxi,10,100316,39.7,118.433333
co,magangue,Magangué,35,100315,9.242024,-74.754671
br,ji-parana,Ji-Paraná,24,100128,-10.833333,-61.966667
ar,tandil,Tandil,1,100127,-37.321674,-59.133164
gb,worcester,Worcester,Q4,100023,52.166667,-2.166667
cn,dongsheng,Dongsheng,20,99809,39.816085,109.977629
br,itabira,Itabira,15,99498,-19.616667,-43.216667
eg,akhmim,Akhmim,24,99459,26.5666667,31.7333333
cn,meihekou,Meihekou,5,99419,42.527222,125.675278
cz,liberec,Liberec,83,99416,50.763889,15.065278
br,votorantim,Votorantim,27,99392,-23.541318,-47.444671
de,zwickau,Zwickau,13,99343,50.733333,12.5
ca,thunder bay,Thunder Bay,8,99336,48.4,-89.233333
de,jena,Jena,15,99269,50.933333,11.583333
br,sertaozinho,Sertãozinho,27,99213,-21.133333,-47.983333
gb,worthing,Worthing,P6,99110,50.8,-0.366667
bd,bhola,Bhola,80,99090,22.6833333,90.65
br,santana de parnaiba,Santana de Parnaíba,27,98991,-23.45,-46.916667
cn,xingcheng,Xingcheng,19,98968,40.616667,120.716667
de,kaiserslautern,Kaiserslautern,8,98947,49.45,7.75
cn,lishui,Lishui,2,98946,28.460417,119.910291
br,bage,Bagé,23,98943,-31.333333,-54.1
fi,lahti,Lahti,13,98826,60.966667,25.666667
br,passos,Passos,15,98753,-20.716667,-46.616667
cn,renqiu,Renqiu,10,98569,38.698889,116.093611
cu,cardenas,Cárdenas,3,98519,23.0375,-81.2047222
bb,bridgetown,Bridgetown,8,98511,13.1,-59.6166667
br,salto,Salto,27,98389,-23.2,-47.283333
cn,dongzhen,Dongzhen,30,98259,22.373029,110.947456
de,iserlohn,Iserlohn,7,98190,51.366667,7.7
cn,chengzihe,Chengzihe,8,98188,45.333333,131.066667
cn,liling,Liling,11,98162,27.666667,113.5
cn,nongan,Nongan,5,98087,44.381982,125.168469
by,lida,Lida,3,98036,53.8833333,25.2997222
br,toledo,Toledo,18,97846,-24.733333,-53.75
br,uba,Ubá,15,97829,-21.116667,-42.933333
br,ourinhos,Ourinhos,27,97801,-22.983333,-49.866667
an,willemstad,Willemstad,0,97590,12.1,-68.9166667
cn,heyang,Heyang,33,97575,29.994722,106.257222
gb,rochdale,Rochdale,L2,97550,53.616667,-2.15
cz,ceske budejovice,Ceske Budejovice,79,97530,48.983333,14.466667
br,trindade,Trindade,29,97523,-16.666667,-49.5
br,arapongas,Arapongas,18,97513,-23.383333,-51.45
es,reus,Reus,56,97508,41.155913,1.107423
cn,xinyu,Xinyu,3,97480,27.804294,114.933354
cz,hradec kralove,Hradec Kralove,82,97427,50.207744,15.829455
cl,villa alemana,Villa Alemana,1,97320,-33.042222,-71.373333
cn,fangshan,Fangshan,22,97026,39.698333,115.9925
fr,roubaix,Roubaix,B4,96806,50.694207,3.174556
cd,bunia,Bunia,9,96757,1.566667,30.25
br,araguari,Araguari,15,96567,-18.633333,-48.183333
br,corumba,Corumbá,11,96523,-19.016667,-57.65
cm,djang,Djang,8,96436,5.45,10.0666667
gb,basingstoke,Basingstoke,F2,96349,51.266667,-1.083333
de,gutersloh,Gütersloh,7,96332,51.9,8.383333
de,schwerin,Schwerin,12,96329,53.633333,11.383333
gb,solihull,Solihull,M2,96268,52.416667,-1.783333
af,khowst,Khowst,37,96246,33.339512,69.92041
cn,zhangye,Zhangye,15,96228,38.934167,100.451667
cn,yuncheng,Yuncheng,30,96192,22.930558,112.037297
br,erechim,Erechim,23,96089,-27.633333,-52.283333
ar,reconquista,Reconquista,21,95979,-29.15,-59.65
cn,lubu,Lubu,30,95820,23.174221,112.280936
eg,hurghada,Hurghada,2,95689,27.2388889,33.8361111
cn,jinsha,Jinsha,4,95647,32.089817,121.073546
ec,esmeraldas,Esmeraldas,9,95630,0.9833333,-79.7
cz,usti,Usti,89,95556,50.666667,14.033333
ar,puerto madryn,Puerto Madryn,4,95547,-42.769201,-65.038513
cn,ducheng,Ducheng,30,95525,23.237294,111.53172
cd,bumba,Bumba,2,95514,2.183333,22.466667
es,telde,Telde,53,95503,27.992425,-15.419153
cn,shenjiamen,Shenjiamen,2,95433,29.957625,122.298017
cn,boli,Boli,8,95260,45.766667,130.516667
cn,xiaoshan,Xiaoshan,2,95234,30.167456,120.258831
cn,enshi,Enshi,12,95227,30.3,109.483333
br,japeri,Japeri,21,95102,-22.648889,-43.658611
fr,argenteuil,Argenteuil,A8,95075,48.939396,2.2367
ci,dabou,Dabou,82,95057,5.325556,-4.376853
cn,wuchang,Wuchang,8,94786,44.914282,127.150007
br,vespasiano,Vespasiano,15,94750,-19.666667,-43.916667
br,campo largo,Campo Largo,18,94669,-25.433333,-49.533333
co,facatativa,Facatativá,33,94613,4.813668,-74.354529
cn,yongchang,Yongchang,33,94465,29.351389,105.894722
gb,harlow,Harlow,E4,94365,51.783333,0.166667
cn,ximei,Ximei,7,94326,24.963889,118.379444
bg,sliven,Sliven,56,94252,42.6858333,26.3291667
cn,yishui,Yishui,25,94115,35.784722,118.628056
fr,tourcoing,Tourcoing,B4,93835,50.723907,3.161168
cn,yuancheng,Yuancheng,30,93718,23.733333,114.683333
et,kembolcha,Kembolcha,46,93709,11.083333,39.733333
cn,baijiantan,Baijiantan,13,93697,45.633333,85.183333
cn,zhengjiatun,Zhengjiatun,5,93666,43.506389,123.506389
br,tatui,Tatuí,27,93582,-23.346655,-47.848368
ca,kanata,Kanata,8,93541,45.333333,-75.9
gb,bath,Bath,A4,93238,51.379444,-2.365556
ar,rio gallegos,Rio Gallegos,20,93234,-51.622613,-69.218127
cn,changping,Changping,22,93174,40.218611,116.219722
au,darwin,Darwin,3,93081,-12.45722,130.836639
gb,southport,Southport,L8,93044,53.666667,-3
de,duren,Düren,7,92956,50.8,6.483333
cl,coronel,Coronel,6,92941,-37.016667,-73.133333
be,leuven,Leuven,12,92892,50.883333,4.7
cu,moa,Moa,12,92885,20.6569444,-74.9402778
cn,lianzhou,Lianzhou,30,92827,24.781111,112.3825
au,toowoomba,Toowoomba,4,92802,-27.56056,151.953857
de,esslingen,Esslingen,1,92710,48.75,9.3
cm,foumban,Foumban,8,92673,5.7166667,10.9166667
br,patos,Patos,17,92577,-7.016667,-37.266667
co,riohacha,Ríohacha,17,92433,11.544444,-72.907222
ar,villa maria,Villa Maria,5,92337,-32.407514,-63.240161
bg,dobric,Dobric,40,92309,43.5666667,27.8333333
de,ratingen,Ratingen,7,92306,51.3,6.85
co,duitama,Duitama,36,92041,5.824499,-73.034083
cn,danjiangkou,Danjiangkou,12,92008,32.542778,111.508611
de,lunen,Lünen,7,91912,51.616667,7.516667
cn,zhongshu,Zhongshu,29,91750,24.516667,103.766667
br,timoteo,Timóteo,15,91723,-19.583333,-42.666667
cn,huazhou,Huazhou,30,91701,21.633333,110.583333
gr,kalamaria,Kalamariá,13,91617,40.5825,22.9502778
cn,yatou,Yatou,25,91517,37.15,122.383333
cn,lingyuan,Lingyuan,19,91418,41.24,119.401111
ch,winterthur,Winterthur,25,91368,47.500035,8.7251
be,mons,Mons,3,91277,50.45,3.933333
de,marl,Marl,7,91262,51.65,7.083333
co,zipaquira,Zipaquirá,33,91237,5.022079,-74.004812
br,muriae,Muriaé,15,91174,-21.133333,-42.366667
es,santiago de compostela,Santiago de Compostela,58,91141,42.880035,-8.544826
cn,duyun,Duyun,18,91136,26.266667,107.516667
br,cambe,Cambé,18,91081,-23.233333,-51.25
cn,pingdu,Pingdu,25,91077,36.784444,119.946389
br,bayeux,Bayeux,17,91058,-7.133333,-34.933333
es,caceres,Cáceres,57,90938,39.481877,-6.373222
es,san fernando,San Fernando,51,90936,36.4759,-6.198166
cn,gaoyou,Gaoyou,4,90911,32.785833,119.427778
gb,maidstone,Maidstone,G5,90894,51.266667,0.516667
br,bento goncalves,Bento Gonçalves,23,90854,-29.166667,-51.516667
cz,pardubice,Pardubice,86,90853,50.027778,15.775833
br,caraguatatuba,Caraguatatuba,27,90844,-23.616667,-45.416667
bd,kishorganj,Kishorganj,81,90700,24.4333333,90.7666667
cn,hanting,Hanting,25,90637,36.770833,119.210833
at,klagenfurt,Klagenfurt,2,90610,46.624722,14.305278
eg,tahta,Tahta,24,90604,26.7680556,31.4938889
cn,bose,Bose,16,90603,23.899722,106.613333
cn,tongren,Tongren,18,90593,27.717222,109.185278
cn,xihe,Xihe,12,90422,31.686355,113.465846
br,itanhaem,Itanhaém,27,90387,-24.183333,-46.783333
cn,huayang,Huayang,32,90365,30.510299,104.054219
cn,duobao,Duobao,12,90257,30.670005,112.689517
et,harer,Harer,50,90226,9.309444,42.125833
cn,sishui,Sishui,25,90175,35.648889,117.275833
cn,laizhou,Laizhou,25,90070,37.171667,119.921389
bw,francistown,Francistown,8,89979,-21.1666667,27.5166667
cn,huaidian,Huaidian,9,89978,33.433333,115.033333
de,hanau,Hanau,5,89938,50.133333,8.916667
cn,xiongyue,Xiongyue,19,89887,40.177368,122.122844
br,santana do livramento,Santana do Livramento,23,89696,-30.883333,-55.516667
br,umuarama,Umuarama,18,89688,-23.75,-53.333333
cd,beni,Beni,11,89643,0.5,29.466667
cn,choucheng,Choucheng,2,89629,29.315056,120.076764
ar,presidencia roque saenz pena,Presidencia Roque Saenz Pena,3,89584,-26.785221,-60.438761
al,vlore,Vlorë,51,89528,40.4666667,19.4897222
br,almirante tamandare,Almirante Tamandaré,18,89500,-25.3,-49.316667
ar,santa rosa,Santa Rosa,11,89478,-36.616667,-64.283333
cn,fujin,Fujin,8,89442,47.26,132.032222
dz,adrar,Adrar,34,89441,27.9,-0.2833333
ci,bouafle,Bouaflé,83,89344,6.990406,-5.744204
cn,huaicheng,Huaicheng,30,89294,23.905134,112.193144
gb,lincoln,Lincoln,H7,89228,53.233333,-0.533333
fr,montreuil,Montreuil,A8,89125,48.864151,2.443218
cn,lujiang,Lujiang,1,89119,31.233572,117.280566
cn,hede,Hede,4,89107,33.768056,120.251667
fi,kuopio,Kuopio,14,89104,62.9,27.683333
al,shkoder,Shkodër,49,89102,42.0675,19.5130556
gb,hastings,Hastings,E2,89100,50.85,0.6
es,parla,Parla,29,88983,40.236045,-3.767524
cn,lengshuitan,Lengshuitan,11,88935,26.411098,111.595592
de,velbert,Velbert,7,88876,51.333333,7.05
br,planaltina,Planaltina,7,88855,-15.616667,-47.666667
co,fusagasuga,Fusagasuga,33,88822,4.336463,-74.363779
br,crato,Crato,6,88788,-7.233333,-39.383333
bd,habiganj,Habiganj,86,88770,24.3833333,91.4166667
cn,wangqing,Wangqing,5,88732,43.321787,129.763416
br,valinhos,Valinhos,27,88631,-22.95,-47.016667
bo,montero,Montero,8,88623,-17.3333333,-63.25
br,sao lourenco da mata,São Lourenço da Mata,30,88417,-8,-35.05
br,nova lima,Nova Lima,15,88400,-19.983333,-43.85
co,cienaga,Ciénaga,38,88313,11.007029,-74.247646
br,brusque,Brusque,26,88286,-27.1,-48.933333
ci,issia,Issia,80,88251,6.492241,-6.585576
ar,zarate,Zarate,1,88222,-34.098142,-59.028585
ar,gualeguaychu,Gualeguaychu,8,88218,-33.009375,-58.51722
cm,ebolowa,Ébolowa,14,88140,2.9,11.15
cn,yuzhou,Yuzhou,9,87961,34.162778,113.463889
ca,saint john,Saint John,4,87857,45.266667,-66.066667
de,ludwigsburg,Ludwigsburg,1,87855,48.9,9.183333
gb,grimsby,Grimsby,J2,87819,53.533333,-0.05
ca,brantford,Brantford,8,87761,43.133333,-80.266667
cn,hanchuan,Hanchuan,12,87737,30.65,113.766667
br,barra do pirai,Barra do Piraí,21,87669,-22.466111,-43.827778
cn,qiongshan,Qiongshan,31,87657,20.005833,110.354167
cn,xiangxiang,Xiangxiang,11,87592,27.733333,112.533333
cn,deqing,Deqing,2,87576,30.541667,119.9575
br,assis,Assis,27,87473,-22.666667,-50.416667
ca,moncton,Moncton,4,87467,46.083333,-64.766667
cn,ziyang,Ziyang,32,87400,30.121083,104.648106
cn,mishan,Mishan,8,87257,45.543056,131.882222
cn,nenjiang,Nenjiang,8,87236,49.183333,125.216667
gb,darlington,Darlington,D1,87205,54.533333,-1.566667
br,caieiras,Caieiras,27,87199,-23.36193,-46.740681
ao,malanje,Malanje,12,87047,-9.544722,16.345278
gb,harrogate,Harrogate,J7,87024,53.983333,-1.533333
bj,lokossa,Lokossa,15,86987,6.6333333,1.7166667
bf,koudougou,Koudougou,19,86965,12.25,-2.3666667
cn,shizilu,Shizilu,25,86749,35.171111,118.828889
co,tumaco,Tumaco,20,86714,1.798611,-78.815556
gb,hartlepool,Hartlepool,F5,86713,54.686111,-1.2125
ar,pergamino,Pergamino,1,86708,-33.889949,-60.573568
gb,bedford,Bedford,Z5,86659,52.133333,-0.45
fr,poitiers,Poitiers,B7,86639,46.583333,0.333333
br,igarassu,Igarassu,30,86458,-7.833333,-34.9
co,apartado,Apartadó,2,86439,7.866667,-76.666667
es,cornella,Cornellá,56,86420,41.352784,2.070769
co,piedecuesta,Piedecuesta,26,86388,6.987892,-73.049533
cd,mbanza-ngungu,Mbanza-Ngungu,8,86351,-5.25,14.866667
gb,londonderry,Londonderry,S6,86312,55,-7.25
cn,nanfeng,Nanfeng,30,86129,23.743439,111.795934
cn,yongzhou,Yongzhou,11,86095,26.423889,111.613056
cn,dayong,Dayong,11,86083,29.129444,110.478333
ci,sinfra,Sinfra,83,85875,6.621026,-5.911442
fr,avignon,Avignon,B8,85848,43.945404,4.810226
cz,havirov,Havirov,85,85829,49.8,18.4
bd,manikganj,Manikganj,81,85800,23.8552778,90.0125
cn,helong,Helong,5,85756,42.539744,128.99722
es,lorca,Lorca,31,85756,37.671192,-1.701699
cl,san antonio,San Antonio,1,85651,-33.593333,-71.621667
gb,hemel hempstead,Hemel Hempstead,F8,85630,51.75,-0.466667
cn,hailin,Hailin,8,85578,44.583333,129.416667
cn,nanding,Nanding,25,85495,36.748333,118.055833
es,lugo,Lugo,58,85450,43.013813,-7.558543
cn,guozhen,Guozhen,26,85415,34.365907,107.359045
bg,sumen,Sumen,54,85394,43.2766667,26.9291667
br,paulo afonso,Paulo Afonso,5,85353,-9.35,-38.233333
br,ituiutaba,Ituiutaba,15,85346,-18.966667,-49.466667
cn,dengzhou,Dengzhou,25,85279,37.808611,120.750833
es,coslada,Coslada,29,85168,40.423776,-3.561287
de,flensburg,Flensburg,10,85158,54.783333,9.433333
cn,qufu,Qufu,25,85144,35.596667,116.991111
fr,versailles,Versailles,A8,85134,48.803593,2.134236
es,girona,Girona,56,85128,41.984444,2.821111
au,ballarat,Ballarat,7,85110,-37.56266,143.862579
fi,jyvaskyla,Jyväskylä,15,85026,62.233333,25.733333
dz,aflu,Aflu,25,84998,34.1088889,2.1019444
ar,necochea,Necochea,1,84969,-38.547259,-58.736753
cm,guider,Guider,13,84928,9.9341667,13.9486111
ca,nanaimo,Nanaimo,2,84906,49.15,-123.916667
br,esteio,Esteio,23,84903,-29.85,-51.166667
bd,madaripur,Madaripur,81,84799,23.1752778,90.2072222
cn,yumen,Yumen,15,84769,39.833333,97.733333
br,sarandi,Sarandi,18,84698,-23.433333,-51.866667
gb,stevenage,Stevenage,F8,84652,51.916667,-0.216667
gb,saint albans,Saint Albans,F8,84561,51.75,-0.333333
ar,san ramon de la nueva oran,San Ramon de la Nueva Oran,17,84504,-23.13398,-64.324645
fr,nanterre,Nanterre,A8,84448,48.891373,2.20027
br,itaperuna,Itaperuna,21,84436,-21.2,-41.9
cm,foumbot,Foumbot,8,84417,5.5,10.6333333
cn,dinghai,Dinghai,2,84380,30.010754,122.204649
ar,san vicente,San Vicente,1,84333,-34.982645,-58.376169
cn,dafeng,Dafeng,4,84323,33.199728,120.457805
cn,keshan,Keshan,8,84292,48.066667,125.9
bo,trinidad,Trinidad,3,84264,-14.8333333,-64.9
cn,jinxiang,Jinxiang,2,84231,27.432654,120.60625
de,wilhelmshaven,Wilhelmshaven,6,84209,53.516667,8.133333
fr,creteil,Créteil,A8,84133,48.792661,2.465694
bd,feni,Feni,85,84038,23.0186111,91.41
fr,saint-denis,Saint-Denis,A8,84027,48.934172,2.354805
ar,rafaela,Rafaela,21,84025,-31.250332,-61.486696
cn,jiangdu,Jiangdu,4,83936,32.436667,119.550833
de,tubingen,Tübingen,1,83815,48.533333,9.05
cf,carnot,Carnot,4,83761,4.9333333,15.8666667
ci,katiola,Katiola,90,83695,8.137278,-5.10095
gb,south shields,South Shields,M7,83656,54.987778,-1.421389
cn,lingdong,Lingdong,8,83636,46.566944,131.145278
cu,mayari,Mayarí,12,83631,20.6541667,-75.6819444
cn,nanzhang,Nanzhang,12,83604,31.783941,111.827518
co,ocana,Ocaña,21,83513,8.237727,-73.356038
bj,ouidah,Ouidah,9,83506,6.3666667,2.0833333
cn,tancheng,Tancheng,25,83467,34.613611,118.339722
de,minden,Minden,7,83402,52.283333,8.916667
br,codo,Codó,13,83289,-4.483333,-43.883333
cn,xucheng,Xucheng,30,83267,20.350001,110.128837
ar,campana,Campana,1,83175,-34.168742,-58.95914
es,pozuelo de alarcon,Pozuelo de Alarcón,29,83173,40.432931,-3.813375
ci,bingerville,Bingerville,82,83105,5.355809,-3.885371
cn,taihe,Taihe,32,83018,30.871229,105.384542
cn,hecun,Hecun,10,83009,36.533333,114.111111
ca,sarnia,Sarnia,8,82998,42.966667,-82.4
cn,ningyang,Ningyang,25,82994,35.764167,116.791389
gb,weston-super-mare,Weston-super-Mare,J4,82903,51.345833,-2.967778
cn,yuanping,Yuanping,24,82883,38.715278,112.7575
bo,yacuiba,Yacuiba,9,82808,-22.0333333,-63.6833333
es,talavera de la reina,Talavera de la Reina,54,82704,39.963485,-4.830759
cn,yunhe,Yunhe,4,82641,34.311389,117.950278
gb,halifax,Halifax,C2,82625,53.716667,-1.85
cn,changqing,Changqing,25,82598,36.5575,116.727222
br,araxa,Araxá,15,82597,-19.583333,-46.916667
cn,jiancheng,Jiancheng,32,82563,30.390968,104.549121
cl,chiguayante,Chiguayante,6,82545,-36.916667,-73.016667
cn,shache,Shache,13,82509,38.416667,77.240556
cn,yima,Yima,9,82509,34.738056,111.883889
cn,shangzhi,Shangzhi,8,82419,45.214033,127.950313
cn,nangong,Nangong,10,82386,37.358056,115.374444
gr,akharnai,Akharnaí,35,82376,38.0833333,23.7333333
cn,lushunkou,Lushunkou,19,82345,38.8,121.266667
bd,laksham,Laksham,85,82299,23.2472222,91.1425
de,villingen-schwenningen,Villingen-Schwenningen,1,82286,48.066667,8.45
cn,quzhou,Quzhou,2,82216,28.959444,118.868611
bg,pernik,Pernik,49,82185,42.6,23.0333333
bj,abomey,Abomey,18,82158,7.1833333,1.9833333
de,worms,Worms,8,82104,49.635556,8.359722
bd,ishurdi,Ishurdi,81,82005,24.1333333,89.0833333
es,aviles,Avilés,34,81984,43.554728,-5.924832
br,abreu e lima,Abreu e Lima,30,81960,-7.9,-34.883333
co,la dorada,La Dorada,37,81951,5.44783,-74.663111
de,konstanz,Konstanz,1,81951,47.666667,9.183333
br,itajuba,Itajubá,15,81871,-22.433333,-45.45
gb,birkenhead,Birkenhead,Q1,81806,53.4,-3.033333
cn,tangping,Tangping,30,81729,22.026471,111.93229
au,bendigo,Bendigo,7,81658,-36.758179,144.280243
ge,sukhumi,Sukhumi,2,81546,43.0033333,41.0152778
br,lavras,Lavras,15,81474,-21.233333,-45
cn,yudong,Yudong,33,81408,29.385,106.519444
bd,sarishabari,Sarishabari,81,81334,24.7333333,89.8333333
gb,chester,Chester,Z8,81313,53.2,-2.916667
br,avare,Avaré,27,81287,-23.083333,-48.916667
gb,warrington,Warrington,P2,81238,53.383333,-2.6
br,formosa,Formosa,29,81233,-15.533333,-47.333333
br,leme,Leme,27,81211,-22.2,-47.4
cn,mata,Mata,30,81166,21.617844,111.336796
ci,adzope,Adzopé,74,81150,6.106944,-3.861944
cz,zlin,Zlin,90,81066,49.216667,17.666667
cm,bafang,Bafang,8,80966,5.15,10.1833333
cn,feicheng,Feicheng,25,80929,35.260556,117.9675
bj,natitingou,Natitingou,8,80896,10.3066667,1.375
cn,shanting,Shanting,25,80843,35.075278,117.457778
gb,wigan,Wigan,P7,80789,53.533333,-2.616667
cn,gushi,Gushi,9,80666,32.2,115.8
cm,yagoua,Yagoua,12,80510,10.3427778,15.2405556
cm,mbalmayo,Mbalmayo,11,80483,3.5166667,11.5
fr,la rochelle,La Rochelle,B7,80406,46.166667,-1.15
cn,zhuanghe,Zhuanghe,19,80384,39.700833,122.991111
gb,high wycombe,High Wycombe,B9,80357,51.633333,-0.766667
cm,meiganga,Meïganga,10,80355,6.5166667,14.3
cn,tongzi,Tongzi,18,80344,28.1375,106.82
cn,xushan,Xushan,2,80299,30.176405,121.245702
cn,baoying,Baoying,4,80292,33.229167,119.309167
cn,nanhai,Nanhai,12,80290,30.128189,111.778369
cn,dashiqiao,Dashiqiao,19,80223,40.637318,122.502508
cn,panshi,Panshi,5,80200,42.942222,126.056111
de,dorsten,Dorsten,7,80180,51.666667,6.966667
ao,namibe,Namibe,13,80150,-15.196111,12.152222
de,ludenscheid,Lüdenscheid,7,80045,51.216667,7.616667
ar,olavarria,Olavarria,1,80005,-36.892715,-60.32254
gb,stockton-on-tees,Stockton-on-Tees,N3,79957,54.583333,-1.416667
cn,taixing,Taixing,4,79655,32.166667,120.013611
fr,aulnay-sous-bois,Aulnay-sous-Bois,A8,79622,48.938138,2.494022
es,guadalajara,Guadalajara,54,79616,40.628621,-3.161849
br,itumbiara,Itumbiara,29,79583,-18.416667,-49.216667
ci,seguela,Séguéla,91,79565,7.961111,-6.673056
br,marica,Maricá,21,79552,-22.916667,-42.816667
cn,tangjiazhuang,Tangjiazhuang,10,79489,39.733333,118.45
de,neumunster,Neumünster,10,79429,54.066667,9.983333
de,marburg,Marburg,5,79300,50.816667,8.766667
cn,shouguang,Shouguang,25,79212,36.88,118.7375
cn,shenxian,Shenxian,25,79196,36.241111,115.667222
cn,suicheng,Suicheng,30,79141,21.414225,110.236498
cn,qixia,Qixia,25,79106,37.2975,120.825556
cn,xiongzhou,Xiongzhou,30,79050,25.116667,114.3
bd,netrakona,Netrakona,81,79025,24.8833333,90.7166667
ci,bondoukou,Bondoukou,92,79013,8.040201,-2.800034
fr,calais,Calais,B4,79010,50.951241,1.85899
br,ubatuba,Ubatuba,27,79008,-23.433333,-45.066667
gb,wakefield,Wakefield,O7,78978,53.7,-1.483333
ci,oume,Oumé,79,78872,6.383086,-5.417591
bg,haskovo,Haskovo,43,78865,41.9402778,25.5694444
cn,xinzhou,Xinzhou,12,78767,30.866667,114.8
cn,shitanjing,Shitanjing,21,78765,39.234167,106.343889
cn,tumen,Tumen,5,78719,42.966111,129.8425
br,tres lagoas,Três Lagoas,11,78714,-20.8,-51.716667
es,el puerto de santa maria,El Puerto de Santa María,51,78714,36.59952,-6.227507
es,ferrol,Ferrol,58,78689,43.483213,-8.236893
fr,rueil-malmaison,Rueil-Malmaison,A8,78645,48.876503,2.189666
br,sao joao del rei,São João del Rei,15,78593,-21.15,-44.266667
de,castrop-rauxel,Castrop-Rauxel,7,78587,51.55,7.316667
cn,youhao,Youhao,8,78402,47.866667,128.833333
cn,pingyi,Pingyi,25,78254,35.500556,117.630833
br,moji-mirim,Moji-Mirim,27,78245,-22.433333,-46.95
cn,linping,Linping,2,78180,30.4225,120.297222
br,abaetetuba,Abaetetuba,16,78052,-1.7,-48.9
cn,rucheng,Rucheng,4,77947,32.388333,120.555278
cn,linkou,Linkou,8,77754,45.3,130.283333
co,ipiales,Ipiales,20,77730,0.830178,-77.649594
gb,gateshead,Gateshead,E5,77649,54.945,-1.6175
cn,bijie,Bijie,18,77645,27.3125,105.294167
cn,huangmei,Huangmei,12,77633,30.192347,116.024959
ar,lujan,Lujan,13,77625,-33.035471,-68.877823
br,sao bento do sul,São Bento do Sul,26,77598,-26.249722,-49.3825
es,pontevedra,Pontevedra,58,77595,42.433333,-8.633333
cn,songling,Songling,4,77566,31.193303,120.717577
br,alegrete,Alegrete,23,77540,-29.766667,-55.766667
cn,jishui,Jishui,9,77540,33.733333,115.4
be,aalst,Aalst,8,77534,50.933333,4.033333
be,mechelen,Mechelen,1,77531,51.033333,4.466667
fr,pau,Pau,97,77475,43.299999,-0.366667
cn,linqu,Linqu,25,77472,36.515556,118.539722
es,palencia,Palencia,55,77438,42.009552,-4.524063
cn,shulan,Shulan,5,77420,44.35,126.8
de,arnsberg,Arnsberg,7,77415,51.383333,8.083333
br,itauna,Itaúna,15,77402,-20.066667,-44.566667
cn,yanzhou,Yanzhou,25,77276,35.552778,116.828611
de,gladbeck,Gladbeck,7,77264,51.566667,6.983333
cn,jiexiu,Jiexiu,24,77178,37.024444,111.9125
do,barahona,Barahona,3,77161,18.2,-71.1
cl,ovalle,Ovalle,7,77139,-30.598333,-71.200278
gb,redditch,Redditch,Q4,77129,52.3,-1.933333
br,sao mateus,São Mateus,8,77119,-18.733333,-39.85
fr,vitry-sur-seine,Vitry-sur-Seine,A8,77035,48.787159,2.403322
cn,hunchun,Hunchun,5,77028,42.8675,130.358056
cn,tunxi,Tunxi,1,77000,29.711389,118.3125
eg,damietta,Damietta,20,76906,31.4194444,31.815
cu,puerto padre,Puerto Padre,13,76841,21.195,-76.6027778
fi,pori,Pori,15,76773,61.483333,21.783333
de,viersen,Viersen,7,76771,51.25,6.383333
cn,liangxiang,Liangxiang,22,76744,39.731944,116.14
cn,zhifang,Zhifang,12,76682,30.35,114.316667
gh,koforidua,Koforidua,5,76669,6.0833333,-0.25
be,la louviere,La Louvière,3,76668,50.466667,4.183333
de,dessau,Dessau,14,76628,51.833333,12.25
ar,viedma,Viedma,16,76553,-40.813452,-62.996676
br,jatai,Jataí,29,76548,-17.883333,-51.716667
br,sao joao da boa vista,São João da Boa Vista,27,76541,-21.966667,-46.783333
br,lorena,Lorena,27,76507,-22.733333,-45.133333
bd,sunamganj,Sunamganj,86,76491,25.0666667,91.4
de,rheine,Rheine,7,76474,52.283333,7.45
cn,fulitun,Fulitun,8,76465,46.721667,131.139444
br,santa cruz do capibaribe,Santa Cruz do Capibaribe,30,76451,-7.95,-36.2
cn,guicheng,Guicheng,16,76430,23.096389,109.609167
cn,yangliuqing,Yangliuqing,28,76387,39.1375,116.999722
ar,junin,Junin,1,76369,-34.583816,-60.943318
br,sao sebastiao,São Sebastião,27,76369,-23.8,-45.416667
cf,mbaiki,Mbaïki,7,76350,3.8833333,18
br,tucurui,Tucuruí,16,76339,-3.7,-49.7
br,embu-guacu,Embu-Guaçu,27,76311,-23.816667,-46.8
ec,babahoyo,Babahoyo,13,76279,-1.8166667,-79.5166667
bg,pazardzik,Pazardzik,48,76254,42.2,24.3333333
fr,colombes,Colombes,A8,76209,48.918824,2.254044
cn,qingquan,Qingquan,12,76154,30.45113,115.255931
gb,bracknell,Bracknell,B3,76103,51.416667,-0.75
ar,general roca,General Roca,16,76066,-39.02797,-67.573711
br,sapiranga,Sapiranga,23,76053,-29.633333,-51
bj,save,Savé,11,75973,8.0333333,2.4833333
au,mackay,Mackay,4,75924,-21.15345,149.165543
cn,lishan,Lishan,26,75882,34.378027,109.208925
ec,la libertad,La Libertad,10,75881,-2.2333333,-80.9
ca,peterborough,Peterborough,8,75879,44.3,-78.333333
cn,shuiji,Shuiji,25,75849,36.859167,120.526944
br,para de minas,Pará de Minas,15,75787,-19.85,-44.616667
de,delmenhorst,Delmenhorst,6,75740,53.05,8.616667
br,candeias,Candeias,5,75673,-12.666667,-38.55
cn,jiaonan,Jiaonan,25,75656,35.878611,119.975278
ba,bihac,Bihac,1,75641,44.8169444,15.8708333
de,troisdorf,Troisdorf,7,75641,50.816667,7.166667
gb,chatham,Chatham,I3,75510,51.383333,0.516667
de,brandenburg,Brandenburg,11,75507,52.416667,12.55
fr,antibes,Antibes,B8,75311,43.562407,7.127766
bg,jambol,Jambol,65,75290,42.4833333,26.5
gb,hove,Hove,B6,75174,50.833333,-0.183333
cn,fuyu,Fuyü,8,75147,47.641389,124.679444
co,quibdo,Quibdó,11,75105,5.694722,-76.661111
es,toledo,Toledo,54,75054,39.867263,-4.02981
ci,ferkessedougou,Ferkessédougou,87,74966,9.5928,-5.194487
de,detmold,Detmold,7,74853,51.933333,8.883333
de,bayreuth,Bayreuth,2,74840,49.948056,11.578333
ar,lujan,Lujan,1,74823,-34.570278,-59.105
cn,huilong,Huilong,4,74818,31.811111,121.655
cn,beidao,Beidao,15,74767,34.568611,105.893333
cn,yanggu,Yanggu,25,74725,36.110556,115.775278
br,cachoeira do sul,Cachoeira do Sul,23,74696,-30.033333,-52.9
cn,aojiang,Aojiang,2,74636,27.59564,120.555371
gb,aylesbury,Aylesbury,B9,74565,51.816667,-0.8
cn,shancheng,Shancheng,25,74459,34.795278,116.081667
cn,nanma,Nanma,25,74406,36.181667,118.158333
gb,east kilbride,East Kilbride,W5,74231,55.766667,-4.166667
cn,suixi,Suixi,1,74172,33.890673,116.774725
cn,xinmin,Xinmin,19,74139,41.990833,122.825278
gb,tamworth,Tamworth,N1,74130,52.616667,-1.683333
cn,gucheng,Gucheng,12,74038,32.266043,111.634759
cn,xianshuigu,Xianshuigu,28,74028,38.985,117.382778
bo,riberalta,Riberalta,3,74018,-10.9833333,-66.1
br,santo antonio de jesus,Santo Antônio de Jesus,5,73959,-12.966667,-39.266667
cn,yunyang,Yunyang,9,73922,33.447432,112.714225
be,kortrijk,Kortrijk,9,73879,50.833333,3.266667
de,bocholt,Bocholt,7,73872,51.833333,6.6
ci,dimbokro,Dimbokro,86,73789,6.64678,-4.70519
cn,xiongshi,Xiongshi,3,73732,28.288572,117.213291
cn,lanxi,Lanxi,2,73706,29.21946,119.476953
cn,genhe,Genhe,20,73631,50.783333,121.516667
cd,kamina,Kamina,5,73616,-8.738611,24.990556
ca,red deer,Red Deer,1,73595,52.266667,-113.8
cn,luocheng,Luocheng,32,73581,29.384813,104.028621
gb,nuneaton,Nuneaton,P3,73555,52.516667,-1.466667
gb,burnley,Burnley,H2,73480,53.8,-2.233333
br,caceres,Cáceres,14,73431,-16.066667,-57.683333
au,mandurah,Mandurah,8,73369,-32.526901,115.721703
co,aguachica,Aguachica,10,73361,8.308442,-73.6166
cn,juegang,Juegang,4,73317,32.31737,121.185525
cn,yian,Yian,8,73299,47.883333,125.3
do,bonao,Bonao,31,73273,18.9333333,-70.4166667
de,luneburg,Lüneburg,6,73252,53.25,10.4
by,zlobin,Zlobin,2,73089,52.8922222,30.0280556
bd,jaipur hat,Jaipur Hat,83,73076,25.1,89.0166667
gb,paisley,Paisley,W2,73074,55.833333,-4.433333
ge,zugdidi,Zugdidi,62,73014,42.5013889,41.8613889
az,qaracuxur,Qaraçuxur,9,72989,40.396667,49.973611
cn,dongdu,Dongdu,25,72957,35.85,117.7
do,san juan de la maguana,San Juan de la Maguana,23,72952,18.8,-71.2333333
cm,bali,Bali,7,72909,5.8833333,10.0166667
ar,concepcion del uruguay,Concepcion del Uruguay,8,72904,-32.482493,-58.237217
br,paranavai,Paranavaí,18,72849,-23.066667,-52.466667
cn,dongkan,Dongkan,4,72789,33.999722,119.830833
br,joao monlevade,João Monlevade,15,72763,-19.833333,-43.133333
cn,jiuquan,Jiuquan,15,72732,39.73817,98.499328
cn,huangchuan,Huangchuan,9,72663,32.127222,115.039444
cn,haian,Haian,4,72654,32.543611,120.45
cn,lichuan,Lichuan,12,72653,30.3,108.85
gb,carlisle,Carlisle,C9,72633,54.883333,-2.933333
cn,lanxi,Lanxi,8,72528,46.262222,126.285556
gb,scunthorpe,Scunthorpe,J3,72515,53.583333,-0.65
cn,miyang,Miyang,29,72485,24.404167,103.442778
cn,jianhu,Jianhu,4,72474,33.277587,119.959845
br,matao,Matão,27,72469,-21.583333,-48.366667
au,launceston,Launceston,6,72462,-41.438759,147.134674
cn,fengzhen,Fengzhen,20,72444,40.439444,113.153611
br,bacabal,Bacabal,13,72374,-4.233333,-44.783333
br,cacapava,Caçapava,27,72341,-23.1,-45.716667
gr,aigaleo,Aigáleo,35,72320,37.9833333,23.6833333
gr,amarousion,Amaroúsion,35,72310,38.05,23.8
cn,xinzhi,Xinzhi,24,72303,36.498889,111.704722
cn,liyang,Liyang,4,72276,31.430795,119.523993
dk,esbjerg,Esbjerg,21,72206,55.470276,8.451869
cm,limbe,Limbe,9,72106,4.0127778,9.2202778
br,aruja,Arujá,27,72078,-23.4,-46.333333
cn,zhoucheng,Zhoucheng,25,72070,35.912222,116.311667
br,cruzeiro,Cruzeiro,27,72023,-22.566667,-44.966667
de,norderstedt,Norderstedt,10,72011,53.7,10.016667
fr,champigny-sur-marne,Champigny-sur-Marne,A8,71985,48.81642,2.493656
br,patrocinio,Patrocínio,15,71964,-18.95,-46.983333
br,tres rios,Três Rios,21,71945,-22.111389,-43.207778
cn,caidian,Caidian,12,71891,30.583333,114.033333
gb,guildford,Guildford,N7,71873,51.216667,-0.566667
br,bebedouro,Bebedouro,27,71863,-20.933333,-48.466667
ar,venado tuerto,Venado Tuerto,21,71794,-33.745564,-61.968845
fr,dunkirk,Dunkirk,B4,71740,51.05,2.366667
de,dinslaken,Dinslaken,7,71632,51.566667,6.733333
cn,xiuyan,Xiuyan,19,71614,40.276985,123.282968
br,sao cristovao,São Cristóvão,28,71540,-11.016667,-37.2
fr,bourges,Bourges,A3,71500,47.083333,2.4
gb,lowestoft,Lowestoft,N5,71479,52.483333,1.75
gb,barnsley,Barnsley,A3,71448,53.55,-1.483333
ar,san francisco,San Francisco,5,71444,-31.427971,-62.082656
co,yumbo,Yumbo,29,71438,3.582335,-76.491455
es,ceuta,Ceuta,51,71436,35.888688,-5.319247
cn,lianzhou,Lianzhou,16,71423,21.668198,109.16946
br,alfenas,Alfenas,15,71407,-21.433333,-45.95
cn,weihe,Weihe,8,71344,44.966667,128.383333
cn,changtu,Changtu,19,71284,42.778842,124.095447
fr,saint-maur-des-fosses,Saint-Maur-des-Fossés,A8,71267,48.793945,2.493233
cz,kladno,Kladno,88,71262,50.142037,14.096549
br,ijui,Ijuí,23,71203,-28.383333,-53.916667
cn,anlu,Anlu,12,71198,31.2575,113.678333
ci,odienne,Odienné,77,71188,9.505114,-7.564332
cn,yilan,Yilan,8,71180,46.316667,129.566667
de,celle,Celle,6,71106,52.616667,10.083333
bd,thakurgaon,Thakurgaon,83,71104,26.0333333,88.4666667
bi,muyinga,Muyinga,18,71095,-2.8494444,30.3361111
cn,simao,Simao,29,71094,22.788627,100.974807
cn,hanyang,Hanyang,7,71053,27.089167,119.645278
cg,nkayi,Nkayi,1,70945,-4.1655556,13.2927778
gb,grays,Grays,O3,70935,51.483333,0.333333
gb,salford,Salford,L5,70905,53.483333,-2.266667
fr,courbevoie,Courbevoie,A8,70896,48.897,2.2564
br,altamira,Altamira,16,70890,-3.2,-52.2
cn,kuandian,Kuandian,19,70867,40.728611,124.784722
gb,gosport,Gosport,F2,70793,50.8,-1.133333
br,paracatu,Paracatu,15,70754,-17.216667,-46.866667
cg,loubomo,Loubomo,7,70734,-4.1997222,12.6738889
cn,jimo,Jimo,25,70733,36.389722,120.462222
br,carpina,Carpina,30,70690,-7.85,-35.25
gb,chesterfield,Chesterfield,D3,70680,53.25,-1.416667
ca,lethbridge,Lethbridge,1,70619,49.7,-112.833333
gh,nungua,Nungua,8,70482,5.6,-0.0666667
cn,baiquan,Baiquan,8,70472,47.583333,126.083333
de,bamberg,Bamberg,2,70471,49.866667,10.866667
gb,crewe,Crewe,Z7,70456,53.1,-2.433333
gb,mansfield,Mansfield,J9,70447,53.133333,-1.2
cu,contramaestre,Contramaestre,15,70441,20.2977778,-76.2413889
br,iguatu,Iguatu,6,70381,-6.366667,-39.3
cn,jiangyan,Jiangyan,4,70375,32.506111,120.142778
ar,goya,Goya,6,70340,-29.14003,-59.262564
cn,fuyang,Fuyang,2,70183,30.053333,119.951944
cn,xiashi,Xiashi,2,70171,30.536294,120.686384
es,las rozas de madrid,Las Rozas de Madrid,29,70110,40.492113,-3.871271
cd,lisala,Lisala,2,70082,2.15,21.516667
cn,binzhou,Binzhou,16,70013,23.223785,108.802165
es,san sebastian de los reyes,San Sebastián de los Reyes,29,69954,40.550535,-3.626052
cn,mengcheng,Mengcheng,1,69916,33.266109,116.566052
cn,wangkui,Wangkui,8,69915,46.833333,126.5
cu,guira de melena,Güira de Melena,11,69897,22.7905556,-82.5052778
cu,consolacion del sur,Consolación del Sur,1,69859,22.5047222,-83.5136111
br,paragominas,Paragominas,16,69616,-2.966667,-47.483333
bg,blagoevgrad,Blagoevgrad,38,69547,42.0166667,23.1
cl,linares,Linares,11,69536,-35.85,-71.6
gb,shrewsbury,Shrewsbury,L6,69520,52.716667,-2.733333
cm,bafia,Bafia,11,69511,4.75,11.2333333
br,lins,Lins,27,69452,-21.666667,-49.75
cv,mindelo,Mindelo,0,69441,16.8833333,-25
br,jaboticabal,Jaboticabal,27,69396,-21.266667,-48.316667
de,plauen,Plauen,13,69378,50.5,12.133333
eg,esna,Esna,23,69335,25.2930556,32.5527778
co,arauca,Arauca,3,69266,7.084512,-70.755366
de,aschaffenburg,Aschaffenburg,2,69248,49.973889,9.149167
cn,jiehu,Jiehu,25,69245,35.542778,118.455
be,hasselt,Hasselt,5,69222,50.933333,5.333333
cn,linjiang,Linjiang,5,69149,41.806944,126.907778
de,unna,Unna,7,69138,51.533333,7.683333
es,manresa,Manresa,56,69134,41.726337,1.825837
cm,wum,Wum,7,69072,6.3833333,10.0666667
be,ostend,Ostend,9,69011,51.216667,2.916667
be,sint-niklaas,Sint-Niklaas,8,69010,51.166667,4.133333
cn,xiaoshi,Xiaoshi,19,68994,41.297111,124.120918
cu,guines,Güines,11,68938,22.8361111,-82.0280556
ci,duekoue,Duekoué,84,68872,6.74202,-7.349183
eg,abnub,Abnub,17,68756,27.2666667,31.1502778
cn,chengmai,Chengmai,31,68720,19.6825,110.090278
ca,kamloops,Kamloops,2,68715,50.666667,-120.333333
ci,danane,Danané,78,68687,7.259572,-8.154981
br,vicosa,Viçosa,15,68681,-20.75,-42.883333
cn,heishan,Heishan,19,68603,41.689167,122.112778
gh,madina,Madina,8,68591,5.6833333,-0.1666667
co,sabanalarga,Sabanalarga,4,68536,10.629617,-74.92063
co,chinchina,Chinchiná,37,68513,4.9825,-75.603611
cn,pengcheng,Pengcheng,10,68442,36.431111,114.17
cn,shima,Shima,7,68375,24.447778,117.811111
cn,mingguang,Mingguang,1,68351,32.780169,117.963776
cn,ninghai,Ninghai,2,68330,29.289167,121.424722
fr,beziers,Béziers,A9,68264,43.345287,3.222374
cz,most,Most,89,68254,50.509611,13.639121
cd,lodja,Lodja,0,68239,-3.483333,23.433333
cn,kuche,Kuche,13,68105,41.727778,82.936389
cu,artemisa,Artemisa,11,68076,22.8130556,-82.7619444
gb,cannock,Cannock,N1,68067,52.683333,-2.016667
br,balsas,Balsas,13,68058,-7.516667,-46.033333
cn,chaihe,Chaihe,8,67963,44.766667,129.7
cn,minggang,Minggang,9,67945,32.458611,114.048611
cn,tangzhai,Tangzhai,1,67936,34.432778,116.591111
br,itatiba,Itatiba,27,67935,-23,-46.85
cn,dongfeng,Dongfeng,5,67820,42.640309,125.511762
cl,quillota,Quillota,1,67779,-32.883333,-71.266667
gb,ellesmere port,Ellesmere Port,28,67768,53.283333,-2.9
cn,zhenlai,Zhenlai,5,67760,45.849549,123.297296
ci,tingrela,Tingréla,87,67746,10.48115,-6.406939
be,tournai,Tournai,3,67720,50.6,3.383333
cn,songjianghe,Songjianghe,5,67672,42.185903,127.478946
gb,doncaster,Doncaster,D5,67671,53.533333,-1.116667
bd,palang,Palang,81,67659,23.2166667,90.35
de,lippstadt,Lippstadt,7,67638,51.666667,8.35
cn,luorong,Luorong,16,67593,24.405833,109.608611
de,aalen,Aalen,1,67593,48.833333,10.1
ao,soyo,Soyo,16,67553,-6.134903,12.368935
ar,san pedro,San Pedro,1,67514,-33.679127,-59.666635
cn,wenling,Wenling,2,67433,28.366944,121.36
br,santa ines,Santa Inês,13,67426,-3.65,-45.366667
cn,rongcheng,Rongcheng,7,67397,25.725,119.379444
de,neubrandenburg,Neubrandenburg,12,67393,53.566667,13.266667
cn,caohe,Caohe,12,67370,30.2297,115.433461
cu,san luis,San Luis,15,67296,20.0997222,-75.7472222
cn,pingzhuang,Pingzhuang,20,67273,42.037222,119.288889
br,tubarao,Tubarão,26,67246,-28.5,-49.016667
cn,fengkou,Fengkou,12,67139,30.083333,113.266667
ee,narva,Narva,3,66980,59.3772222,28.1902778
cn,liuhe,Liuhe,5,66975,42.240066,125.717173
fr,saint-nazaire,Saint-Nazaire,B5,66937,47.279883,-2.208804
de,neuwied,Neuwied,8,66901,50.433333,7.466667
cn,xihua,Xihua,9,66848,33.783333,114.516667
do,bajos de haina,Bajos de Haina,33,66810,18.4166667,-70.0333333
es,el prat de llobregat,El Prat de Llobregat,56,66796,41.327836,2.094718
do,bani,Baní,17,66712,18.2833333,-70.3333333
fr,cannes,Cannes,B8,66687,43.549744,6.9943
fr,colmar,Colmar,C1,66637,48.078708,7.355401
cn,tailai,Tailai,8,66623,46.383333,123.4
cn,juxian,Juxian,25,66588,35.579444,118.832778
cn,sanchazi,Sanchazi,5,66576,42.081667,126.600278
cn,ningan,Ningan,8,66549,44.383333,129.433333
cn,wuan,Wuan,10,66523,36.694444,114.196389
cn,lianyuan,Lianyuan,11,66501,27.688333,111.664167
ca,white rock,White Rock,2,66450,49.033333,-122.816667
cn,qiyang,Qiyang,11,66442,26.573073,111.841839
es,melilla,Melilla,51,66419,35.283924,-2.943075
cn,changying,Changying,9,66392,34.116667,114.6
cn,huinan,Huinan,5,66315,42.6225,126.261389
fr,quimper,Quimper,A2,66251,48,-4.1
cn,luoyang,Luoyang,7,66188,24.959379,118.682998
cn,bamiantong,Bamiantong,8,66170,44.933333,130.533333
cn,huanren,Huanren,19,66147,41.260501,125.406431
cn,huanan,Huanan,8,66087,46.216667,130.516667
es,rubi,Rubí,56,66084,41.492256,2.033047
cu,moron,Morón,7,66062,22.1094444,-78.6275
cn,yangshe,Yangshe,4,66039,31.889945,120.605215
cn,xiaolingwei,Xiaolingwei,4,66031,32.033333,118.85
ao,cabinda,Cabinda,3,66020,-5.55,12.2
bt,phuntsholing,Phuntsholing,6,65892,26.85,89.3833333
cn,mengyin,Mengyin,25,65889,35.706944,117.926389
au,rockhampton,Rockhampton,4,65851,-23.38032,150.505951
fr,merignac,Mérignac,97,65847,44.832475,-0.633809
de,herford,Herford,7,65834,52.133333,8.683333
br,pato branco,Pato Branco,18,65754,-26.216667,-52.666667
cn,dashitou,Dashitou,5,65683,43.306667,128.511389
ar,rivadavia,Rivadavia,13,65641,-33.190509,-68.46081
cn,fushan,Fushan,25,65622,37.495833,121.258056
cm,bangangte,Bangangté,8,65608,5.15,10.5166667
cn,babu,Babu,16,65603,24.416667,111.516667
br,paulinia,Paulínia,27,65596,-22.75,-47.166667
co,caldas,Caldas,2,65566,6.091056,-75.63569
cn,longhua,Longhua,33,65565,29.116667,107.266667
ca,prince george,Prince George,2,65558,53.916667,-122.766667
cn,yebaishou,Yebaishou,19,65536,41.3975,119.640833
cn,huaiyuan,Huaiyuan,1,65530,32.958933,117.165658
cl,penaflor,Penaflor,12,65494,-33.616667,-70.916667
cz,karvina,Karvina,85,65441,49.856792,18.546907
cn,dancheng,Dancheng,9,65411,33.633333,115.183333
br,lajeado,Lajeado,23,65408,-29.45,-51.966667
gb,bognor regis,Bognor Regis,P6,65391,50.783333,-0.65
gb,torquay,Torquay,O4,65389,50.45,-3.5
cn,bianzhuang,Bianzhuang,25,65381,34.848611,118.044722
ca,belleville,Belleville,8,65368,44.166667,-77.383333
de,herten,Herten,7,65367,51.6,7.133333
cn,wangou,Wangou,5,65298,42.059722,126.915833
gb,stafford,Stafford,M9,65290,52.8,-2.1
gb,stafford,Stafford,N1,65290,52.833333,-2
br,cruz alta,Cruz Alta,23,65276,-28.65,-53.6
cn,jiaocheng,Jiaocheng,7,65170,26.661667,119.522778
cn,fengrun,Fengrun,10,65150,39.833333,118.116667
bd,lalmanir hat,Lalmanir Hat,83,65135,25.9,89.45
es,sant cugat del valles,Sant Cugat del Vallès,56,65118,41.471379,2.081834
br,aquiraz,Aquiraz,6,65117,-3.9,-38.366667
de,weimar,Weimar,15,65113,50.983333,11.316667
cn,kunyang,Kunyang,2,65009,27.665833,120.565833
